ID,ObsType,ObsID,Latitude,Longitude,Elevation(m),LocalDate,LocalTime,UTDate,UTTime,LimitingMag,SQMReading,SQMSerial,CloudCover,Constellation,SkyComment,LocationComment,Country
51078,GAN,1,47.9327,21.0382,93.05,2011-02-21,19:00,2011-02-21,18:00,3,,,"1/4 of sky","Orion","","","Hungary"
51079,GAN,2,27.5072,-109.934,42.74,2011-02-21,21:01,2011-02-22,04:01,4,,,"clear","Orion","No clouds","One porchlight","Mexico"
51080,GAN,3,4.60641,-74.0695,2618.54,2011-02-21,23:32,2011-02-22,04:32,-9999,,,"over 1/2 of sky","Orion","Nicolas Cortes  Universidad Militar Nueva Granada","","Colombia"
51081,GAN,4,28.5747,77.3666,205.03,2011-02-21,20:23,2011-02-21,14:53,3,,,"clear","Orion","","","India"
51082,GAN,5,-34.7182,-55.9598,28.69,2011-02-21,22:00,2011-02-22,00:00,5,,,"1/4 of sky","Orion","","","Uruguay"
51083,GAN,6,45.2402,-84.5441,275.68,2011-02-21,21:21,2011-02-22,02:21,6,,,"1/4 of sky","Orion","","rural","United States - Michigan"
51084,GAN,7,49.1964,119.738,611.9,2011-02-21,21:30,2011-02-21,13:30,5,,,"clear","Orion","No haze. Comparison of the dark sky.","Campus in the suburbs, there is snow and porch lights, no street lights","China"
51085,GAN,8,60.564,-151.197,24.72,2011-02-21,21:11,2011-02-22,06:11,4,,,"clear","Orion","","Inside small City, approximate population 7,000.  A number of street lights nearby with orange-yellowish light.  In addition, neighboring houses have bright porch and yard lights.","United States - Alaska"
51086,GAN,9,19.2063,-155.902,12.2,2011-02-21,22:00,2011-02-22,08:00,5,,,"1/4 of sky","Orion","severe haze over 1/3 of sky to the horizon in westerly direction. over-head (where Orion is at this latitude) is quite clear.  my vision without glasses is only 90%.","rural area, no trees but street lights at a distance of 300 meters.    this is not my normal seeing conditions at this time of year since I am from Canada and a member of RASC/  Waterloo","United States - Hawaii"
51087,GAN,10,-34.3071,152.031,-4100.89,2011-02-21,19:58,2011-02-21,19:58,-9999,,,"over 1/2 of sky","Orion","Heavy cloud - no stars to be seen","Regional. No street lights or other light sources.",""
51088,GAN,11,-31.8769,115.955,14.77,2011-02-21,20:05,2011-02-21,12:05,2,,,"clear","Orion","Still and clear","Suburban - 20kms from major city","Australia"
51089,GAN,12,31.7857,35.2007,804.15,2011-02-21,19:27,2011-02-21,17:27,1,,,"clear","Orion","clear","","Israel"
51090,GAN,14,-37.8816,145.184,76.59,2011-02-21,23:41,2011-02-21,12:41,3,,,"over 1/2 of sky","Orion","Eastern and southern area of sky 100% covered in thick cloud. North and west has patchy cloud - area without cloud (including Orion), is very hazy. Orion situated in the north, north west direction - away from street light. High in the sky. Lack f visibility is due to haze.","Surburban. Street lights every fifth house or so. Street light outside of house is visible from area of sky viewing. Neighbours have only small porchlights. Unobstructed view of the east and south. North and west has trees and houses blocking the horizon.","Australia"
51091,GAN,15,4.77047,100.936,41.65,2011-02-21,22:13,2011-02-21,14:13,4,,,"1/4 of sky","Orion","","suburban","Malaysia"
51092,GAN,16,14.6283,121.039,32.55,2011-02-21,22:00,2011-02-21,14:00,3,,,"clear","Orion","","urban","Philippines"
51093,GAN,17,37.254,55.167,40,2011-02-21,19:30,2011-02-21,16:00,4,,,"clear","Orion","","","Iran"
51094,GAN,18,28.6579,77.3652,203.64,2011-02-21,20:54,2011-02-21,15:24,3,,,"clear","Orion","Sky was good, atmosphere was stable. I could see two stars of sword of Orion.","Urban Location, staying at the top floor (4th floor) of the building, observed from terrace.","India"
51095,GAN,19,22.3436,73.1894,38.23,2011-02-21,21:32,2011-02-21,16:02,4,,,"clear","Orion","The sky was clear.","The location is a Suburban area of city Vadodara in Gujarat state of India. The terrace is suffered with distant street lights - 15 around the observation location.","India"
51098,GAN,22,22.333,73.1947,37.51,2011-02-21,20:30,2011-02-21,15:00,4,,,"clear","Orion","","","India"
51099,GAN,23,6.9155,79.8751,13,2011-02-21,22:41,2011-02-21,17:11,-9999,,,"over 1/2 of sky","Orion","Cloudy all over","Urban.  Two street lights  Traffic lighs","Sri Lanka"
51100,GAN,24,60.1838,24.7809,10.61,2011-02-21,19:25,2011-02-21,17:25,3,,,"1/4 of sky","Orion","","Urban location, snow cover 100%. 3 streetlights & 5 porchlights in vicinity (100 m).","Finland"
51101,GAN,25,49.7335,17.7949,539.85,2011-02-21,18:51,2011-02-21,17:51,1,,,"1/2 of sky","Orion"," of the sky","","Czech Republic"
51102,GAN,26,24.8934,67.0281,18.39,2011-02-21,22:47,2011-02-21,17:47,4,,,"clear","Orion","Sky was very transparent and clear...There were no clouds..","I live in the center of Karachi...There are less number of street lights in my area..","Pakistan"
51103,GAN,27,49.8235,17.7708,489.33,2011-02-21,19:05,2011-02-21,18:05,-9999,,,"1/2 of sky","Orion","","","Czech Republic"
51104,GAN,28,17.385,78.4867,504.88,2011-02-21,23:06,2011-02-21,17:36,2,,,"clear","Orion","Sky glow, and artificial light haze.","Urban","India"
51105,GAN,29,43.2167,27.9167,53.84,2011-02-21,20:06,2011-02-21,18:06,-9999,,,"over 1/2 of sky","Orion","","urban, 4 streetlights","Bulgaria"
51106,GAN,32,49.7776,17.7575,486.89,2011-02-21,19:15,2011-02-21,18:15,-9999,,,"over 1/2 of sky","Orion","","","Czech Republic"
51107,GAN,33,41.9311,25.5489,187.83,2011-02-21,20:06,2011-02-21,18:06,-9999,,,"over 1/2 of sky","Orion","Haskovo claudy and cold.","urban location,Number of streetlights-3","Bulgaria"
51108,GAN,34,50.7815,7.23975,65.84,2011-02-21,19:44,2011-02-21,18:44,2,,,"1/2 of sky","Orion","","","Germany"
51109,GAN,35,49.7109,17.8001,487.26,2011-02-21,19:14,2011-02-21,18:14,-9999,,,"over 1/2 of sky","Orion","More than 1/2 of the sky.It is very cold and overcast.Cloud was a big.","","Czech Republic"
51110,GAN,36,41.9215,25.5568,238.98,2011-02-21,20:22,2011-02-21,18:22,-9999,,,"over 1/2 of sky","Orion","   ."," ,  .  .","Bulgaria"
51111,GAN,37,-26.1131,27.9026,1562.37,2011-02-21,19:26,2011-02-21,17:26,-9999,,,"over 1/2 of sky","Orion","cloudy sky","","South Africa"
51112,GAN,38,49.7757,17.7533,470.47,2011-02-21,20:11,2011-02-21,19:11,-9999,,,"over 1/2 of sky","Orion","","","Czech Republic"
51113,GAN,39,28.6877,77.1666,218.49,2011-02-22,21:39,2011-02-22,16:09,1,,,"1/4 of sky","Orion","","Urban  street light:2  no other light source  in vicinity:trees, buildings","India"
51114,GAN,40,48.31,11.8958,458.75,2011-02-21,20:24,2011-02-21,19:24,-9999,,,"over 1/2 of sky","Orion","","","Germany"
51115,GAN,41,55.9938,-2.51892,18.51,2011-02-21,19:32,2011-02-21,19:32,5,,,"clear","Orion","Haze, looking over brightest part of sky, Low in south.","Snow cover, neigbours light shining into eye.","United Kingdom"
51116,GAN,42,40.6042,-3.71429,734.68,2011-02-21,20:27,2011-02-21,19:27,3,,,"1/2 of sky","Orion","clouds","suburban location.","Spain"
51117,GAN,43,24.9216,67.0259,34.54,2011-02-21,21:30,2011-02-21,16:30,4,,,"clear","Orion","Sky was clearer tonight than most other nights. Transparency was 7 on a scale of 1-10 (10 being best). Not a lot of general haze either. However there were light domes in all directions washing out sky near the horizon completely. Usually the LMag is hovering around 3 but it was 1 mag better today.","Semi-Urban location, with a market-place about a km away, washing out much of the southern and western horizon. But no streetlights affecting my observation place.","Pakistan"
51118,SQM,44,52.0287,8.36865,106.77,2011-02-21,20:10,2011-02-21,19:10,5,20.02,4783,"clear","Orion","A light dome from a city in the east.  Slight haze.","rural","Germany"
51119,GAN,45,32.857,51.5593,1593.86,2011-02-21,23:27,2011-02-21,19:57,4,,,"clear","Orion","clear","","Iran"
51120,SQM,46,51.9647,7.6285,60.91,2011-02-21,20:51,2011-02-21,19:51,3,19.5,,"clear","Orion","Haze","rural city","Germany"
51121,GAN,47,49.8712,12.3348,491.88,2011-02-21,21:52,2011-02-21,20:52,4,,,"clear","Orion","","","Germany"
51122,GAN,48,53.7487,-6.69922,69.38,2011-02-21,20:55,2011-02-21,20:55,-9999,,,"over 1/2 of sky","Orion","Clouds","Suburban. Lots of street lights in this area but not as much as main city.","Ireland"
51123,GAN,49,50.7686,7.19877,74.73,2011-02-21,21:55,2011-02-21,20:55,-9999,,,"over 1/2 of sky","Orion","Very Cloudy. You couldnt see anything.!","","Germany"
51124,GAN,50,47.9349,21.7518,116.26,2011-02-21,21:30,2011-02-21,20:30,2,,,"clear","Orion","No clouds, but the sky is a somewhat hazy.","My location is suburban.  No snow  Number of streetlights 6 in the vicinity.","Hungary"
51125,GAN,51,53.1242,18.0531,44.19,2011-02-21,22:17,2011-02-21,21:17,2,,,"clear","Orion","","","Poland"
51126,GAN,52,45.7593,0.515481,264.52,2011-02-21,22:28,2011-02-21,21:28,-9999,,,"over 1/2 of sky","Orion","Raining!","","France"
51127,GAN,53,50.9243,7.09446,56.78,2011-02-21,22:28,2011-02-21,21:28,3,,,"1/4 of sky","Orion","haze coming from south  light dome from the airport of cologne south-east","","Germany"
51128,GAN,54,53.1225,17.9559,67.42,2011-02-21,22:05,2011-02-21,21:05,4,,,"clear","Orion","'small' kind of scintillation - I am not expert ;)","development of single-family homes; I was behind my house (in the garden), so I coudn't see streetlights (but they were near).","Poland"
51129,GAN,55,49.977,-98.1851,254,2011-02-21,21:17,2011-02-22,03:17,5,,,"clear","Orion","faint sky glow to east, and defined sky glow to west  No clouds  heat distortion from nearby traailer visible","Suburban, snow covered, 3 street lights (2 yellow light, 1 blue-light), 2 small porch lights. Trailer houses on all sides. No trees","Canada"
51130,GAN,56,31.6101,-8.03061,465.93,2011-02-21,22:45,2011-02-21,22:45,5,,,"clear","Orion","Sky is Clear there is now Cloud orbcuring the view","There is an Airport near at 3km  So many light around","Morocco"
51131,GAN,57,50.7057,7.10959,63.91,2011-02-21,22:50,2011-02-21,21:50,3,,,"1/4 of sky","Orion","","3 streetlights in 100m distance","Germany"
51132,GAN,58,18.367,-65.7253,30.02,2011-02-21,19:29,2011-02-21,23:29,-9999,,,"over 1/2 of sky","Orion","Sky glow from the north-west","Rural   Cloudy night. The clouds cover more than 60% of the sky.","Puerto Rico"
51133,GAN,59,42.9165,-77.5034,284.87,2011-02-21,18:36,2011-02-21,23:36,-9999,,,"over 1/2 of sky","Orion","Completely clouded over, no stars in sight.","rural","United States - New York"
51134,GAN,60,38.8723,-77.4148,111.19,2011-02-21,18:46,2011-02-21,23:46,3,,,"over 1/2 of sky","Orion","","","United States - Virginia"
51135,GAN,61,38.8723,-77.4143,110.85,2011-02-21,18:51,2011-02-21,23:51,3,,,"over 1/2 of sky","Orion","My location seems to be between the Mag 3 and Mag 4 shown above.","","United States - Virginia"
51136,GAN,62,35.5647,-77.3688,20.79,2011-02-21,18:50,2011-02-21,23:50,3,,,"1/4 of sky","Orion","","suburban, few streetlights,","United States - North Carolina"
51137,GAN,63,33.1477,-107.234,1333.82,2011-02-21,18:55,2011-02-22,01:55,4,,,"clear","Orion","clear but hard to see because of the street lights","","United States - New Mexico"
51138,GAN,64,9.0125,-79.5033,17.96,2011-02-21,19:04,2011-02-22,00:04,3,,,"clear","Orion","clear","urban location","Panama"
51139,GAN,65,43.5442,-72.2364,366.96,2011-02-21,19:10,2011-02-22,00:10,3,,,"clear","Orion","no haze or clouds, dark sky with not much glow or light, moon not visible from location","rural new hampshire, complete snow cover, no street lights, two porchlights nearby, my house with trees behind and field in front, one neighbors house visible w/one porch light on.","United States - New Hampshire"
51140,GAN,66,4.70401,-74.0574,2554.67,2011-02-21,19:03,2011-02-22,00:03,3,,,"1/4 of sky","Orion","Few clouds .   Those nights before were cloudy","Bogot,Colombia  4 4215"" N  -74 03` 25""  Inside Car Parking in a bulding  Almost no lights .  Barrio El Batan","Colombia"
51141,GAN,67,35.5659,-77.3926,21.59,2011-02-21,19:26,2011-02-22,00:26,1,,,"1/2 of sky","Orion","gloomy cirrus clouds","Pine trees in yard ,1 mile from walmart 4 street lights, Urban","United States - North Carolina"
51142,GAN,68,41.2843,-82.1952,241.67,2011-02-21,19:21,2011-02-22,00:21,6,,,"clear","Orion","Skyglow, light dome in all directions probably extends 20-25 degrees above horizon.","Urban Location, downtown Oberlin, Ohio at Peters Hall, Oberlin College Observatory, Observation Deck.  Too many streetlights, porchlights, etc to count.","United States - Ohio"
51143,GAN,69,41.3946,-82.2141,217.88,2011-02-21,18:36,2011-02-21,23:36,4,,,"clear","Orion","Sky glow Light dome all around extending upward about 35-40 degrees above all horizons.","Urban Location of John O'Neal's Good Night Observatory.  Numerous porch lights, 4 merc vapor lights, auto dealership 1,000 yards south.  Trees all around and my house blocking the north.","United States - Ohio"
51144,GAN,70,28.8083,-81.684,30.03,2011-02-21,19:24,2011-02-22,00:24,3,,,"clear","Orion","No clouds, and no distinguishable sky glow. No haze.","Suburban location, no snow cover, three visible light sources in vicinity. No trees or structures impairing view, although several in vicinity of observation point.","United States - Florida"
51145,GAN,71,41.2952,-82.1528,232.44,2011-02-21,19:55,2011-02-22,00:55,6,,,"clear","Orion","Sky Glow Light Domes from surrounding cities extends 10-15 degrees up from all horizons. Perhaps as high as 20 degrees in direction of Elyria, Lagrange andO berlin.","Suburban site, Black River Astronomical Society Observatory, No lights visible at all.","United States - Ohio"
51146,GAN,72,45.6,-73.45,14.87,2011-02-21,20:00,2011-02-22,01:00,3,,,"1/4 of sky","Orion","","","Canada"
51147,GAN,73,40.7833,-73.9077,7.02,2011-02-21,20:03,2011-02-22,01:03,3,,,"over 1/2 of sky","Orion","cloudy","","United States - New York"
51148,GAN,74,15.7835,-90.2308,373.28,2011-02-21,19:03,2011-02-22,01:03,3,,,"1/4 of sky","Orion","it was more or less clear","urban location the city","Guatemala"
51149,GAN,75,13.5317,-87.5396,46.9,2011-02-21,19:13,2011-02-22,01:13,3,,,"1/2 of sky","Orion","","","Honduras"
51150,GAN,76,40.773,-73.9583,15.78,2011-02-21,20:16,2011-02-22,01:16,-9999,,,"clear","Orion","The sky was very bright.","There were street lights, trees, and buildings","United States - New York"
51151,GAN,77,35.6127,-77.3664,17.5,2011-02-21,20:17,2011-02-22,01:17,2,,,"clear","Orion","The sky was clear to my eyes.","We live in a suburb. There are a couple of streetlights and and there are trees around.","United States - North Carolina"
51152,GAN,78,30.0851,-95.6938,70.12,2011-02-21,19:21,2011-02-22,01:21,3,,,"over 1/2 of sky","Orion","Lights in the distance. Cloudy.","Suburban, streetlights 21, tall trees.","United States - Texas"
51153,GAN,80,8.99445,-79.5377,35.11,2011-02-21,20:00,2011-02-22,01:00,4,,,"clear","Orion","sky clear","there are 3 street light witin 50 mts. that are shielded from my view","Panama"
51154,GAN,81,40.6715,-74.1139,12.78,2011-02-21,20:13,2011-02-22,01:13,-9999,,,"over 1/2 of sky","Orion","All sky cover: overcast","Urban,snow cover light, facing SW, several porch lights","United States - New Jersey"
51155,GAN,82,38.4844,-81.3644,227.29,2011-02-21,20:38,2011-02-22,01:38,-9999,,,"over 1/2 of sky","Orion","overcast","delford c","United States - West Virginia"
51156,GAN,83,43.5416,-72.1302,383.11,2011-02-21,20:35,2011-02-22,01:35,3,,,"clear","Orion","did not see clouds  no sky glow","Woods, rural  one outside light  surrounded by trees","United States - New Hampshire"
51157,GAN,84,35.1134,-80.8709,171.89,2011-02-21,20:40,2011-02-22,01:40,3,,,"clear","Orion","I was able to see Orions belt and some other stars that make up the constelation. Tonight is actually a pretty clear night to spot some stars for being in the city.","","United States - North Carolina"
51158,GAN,85,32.0864,-96.4633,126.58,2011-02-21,19:27,2011-02-22,01:27,5,,,"clear","Orion","","","United States - Texas"
51159,GAN,86,40.7643,-73.8929,10.85,2011-02-21,20:12,2011-02-22,01:12,-9999,,,"over 1/2 of sky","Orion","whole sky clouded. You can't even see the moon","","United States - New York"
51160,GAN,87,32.75,-96.5606,136.34,2011-02-21,19:44,2011-02-22,01:44,2,,,"1/4 of sky","Orion","Hazy.","Neighborhood, lights nearby, not too close though.","United States - Texas"
51161,GAN,88,35.4397,-77.473,12.02,2011-02-21,20:49,2011-02-22,01:49,3,,,"1/4 of sky","Orion","High thin clouds and hazy","Rural area with three widely spaced houses with security lights on the street.","United States - North Carolina"
51162,GAN,89,40.7774,-73.9191,13.15,2011-02-21,20:40,2011-02-22,01:40,-9999,,,"over 1/2 of sky","Orion","Cloudy","","United States - New York"
51163,GAN,90,-34.6233,-58.4072,35.13,2011-02-21,22:45,2011-02-22,01:45,3,,,"1/4 of sky","Orion","Not a 1/4 of sky cloudy, but almost. Big clouds to the North-NW, but below Orion. Glowing sky, not black, but hard blue. Some wind from the East.","Urban location. Viewing from a window in a bulding (6th floor). In front there is another building with some departments with lights on.","Argentina"
51164,GAN,91,32.7415,-96.5482,134.74,2011-02-21,19:49,2011-02-22,01:49,3,,,"1/2 of sky","Orion","Clouds","Suburban neighborhood alley.","United States - Texas"
51165,GAN,92,4.72222,-74.04,2557,2011-02-21,20:50,2011-02-22,01:50,3,,,"over 1/2 of sky","Orion","","","Colombia"
51166,GAN,93,35.6206,-77.4187,19.9,2011-02-21,20:56,2011-02-22,01:56,2,,,"clear","Orion","","Apartment complex, huge light on other side of fence lights up my back porch.","United States - North Carolina"
51167,GAN,94,28.5195,-99.8728,193,2011-02-21,19:54,2011-02-22,01:54,5,,,"clear","Orion","mostly clear, just a very small amount of haze.","st. light within 50 meters, next closest light approx. 200m.","United States - Texas"
51168,GAN,95,32.4264,-81.7798,70.39,2011-02-21,20:34,2011-02-22,01:34,4,,,"clear","Orion","","campus light pollution.","United States - Georgia"
51169,GAN,96,27.7778,-82.7818,0.2,2011-02-21,20:39,2011-02-22,01:39,4,,,"clear","Orion","moonless and clear....","Gulf Beach one light buoy, several houses - streetlights one block away.","United States - Florida"
51170,GAN,97,40.7833,-73.9077,7.02,2011-02-22,00:00,2011-02-22,05:00,-9999,,,"over 1/2 of sky","Orion","I live here in Astoria and i went outside at eight o'clock at night to find orion but today it was snowing so it was cloudy and you couldn't see orion","I didn't find it interesting or fun because i am mad because it snowed and I couldn't find orion because it was cloudy","United States - New York"
51171,GAN,98,32.4115,-111.01,824.92,2011-02-21,19:00,2011-02-22,02:00,3,,,"1/2 of sky","Orion","Thick clouds in the West, starts to thin out in the south","suburban, no street lights only porch lights","United States - Arizona"
51172,GAN,99,32.1756,-110.916,781.18,2011-02-21,19:00,2011-02-22,02:00,2,,,"1/4 of sky","Orion","It Was difficult to see with the clouds.","","United States - Arizona"
51173,GAN,100,41.1182,-73.9554,53.71,2011-02-21,21:14,2011-02-22,02:14,-9999,,,"clear","Orion","","","United States - New York"
51174,GAN,101,32.157,-110.948,771.1,2011-02-21,19:15,2011-02-22,02:15,2,,,"1/4 of sky","Orion","","","United States - Arizona"
51175,GAN,102,41.5301,-87.2848,195.92,2011-02-21,20:14,2011-02-22,02:14,-9999,,,"over 1/2 of sky","Orion","Fully cloud obscured. No visible heavenly bodies. Sky glow strongly from the south, coming from the business corridor along U.S. Route 30, Merrillville, Indiana","In Northwestern Indiana, urban location comprised of communities that make up the far southeastern sprawl that is Chicago. Two miles south of the Lake Michigan shoreline.","United States - Indiana"
51176,GAN,103,31.8776,-110.718,1492.59,2011-02-21,19:19,2011-02-22,02:19,2,,,"1/4 of sky","Orion","","","United States - Arizona"
51178,GAN,105,31.8546,-110.976,870.21,2011-02-21,19:24,2011-02-22,02:24,4,,,"clear","Orion","just a clear night","we  a big water park across from us and everyone has there street lights on","United States - Arizona"
51179,GAN,106,35.1349,-106.549,1664.36,2011-02-21,19:18,2011-02-22,02:18,4,,,"clear","Orion","Visibility good above 30 degrees to the north and south, 20 degrees to the east, but sky glow greatly reduces visibility to the west.","Urban and one street parallel to a major street.  Businesses and churches have a lot of bright lights glowing.","United States - New Mexico"
51181,GAN,108,14.6148,-90.5311,1531.82,2011-02-21,20:28,2011-02-22,02:28,3,,,"1/4 of sky","Orion","","","Guatemala"
51182,GAN,109,29.9229,-90.0909,1.61,2011-02-21,20:22,2011-02-22,02:22,3,,,"1/2 of sky","Orion","Fast eastward moving clouds with very faint stars directly surrounding orion belt","Urban, with three streetlights, porch lights and a three story apt complex on the east side of my north_south street. Also have a two story apt. Complex directly underneath  orions right foot.","United States - Louisiana"
51183,GAN,110,29.9229,-90.0909,1.61,2011-02-21,20:22,2011-02-22,02:22,3,,,"1/2 of sky","Orion","Fast eastward moving clouds with very faint stars directly surrounding orion belt","Urban, with three streetlights, porch lights and a three story apt complex on the east side of my north_south street. Also have a two story apt. Complex directly underneath  orions right foot.","United States - Louisiana"
51184,GAN,113,14.6167,-90.5071,1497.22,2011-02-21,20:39,2011-02-22,02:39,3,,,"1/4 of sky","Orion","","Urban, some streetlights, many trees, almost none vehicles.","Guatemala"
51185,GAN,114,48.3573,-104.757,609.16,2011-02-21,21:00,2011-02-22,04:00,-9999,,,"over 1/2 of sky","Orion","","","United States - Montana"
51186,GAN,115,39.1155,-104.92,2217.85,2011-02-21,19:39,2011-02-22,02:39,4,,,"clear","Orion","","Small mountain town with a few trees that do not block the view of the sky. There is no snow today and there is one bright street light and two or three porch lights.","United States - Colorado"
51187,GAN,116,8.80908,-82.6202,1577.3,2011-02-21,21:49,2011-02-22,02:49,5,,,"clear","Orion","clear","Dark sky, no clouds, but not all the stars, mayne its my eyes.","Panama"
51188,GAN,117,32.2386,-110.879,762.86,2011-02-21,19:50,2011-02-22,02:50,4,,,"clear","Orion","the sky was clear and a deep saphire blue, you can see many stars, even in the middle of town, and in the surrounding mountains the sky is even brighter with stars.","Tucson, Az is where Kitt Peak observatory is, and so for that sake the city has very little light pollution at night.","United States - Arizona"
51189,GAN,118,43.6952,-79.3196,120.84,2011-02-21,21:49,2011-02-22,02:49,1,,,"over 1/2 of sky","Orion","low clouds, covering some 80 to 90% of the sky.","urban, relatively dark backyard, with some street lights on sight, some trees around.","Canada"
51190,GAN,120,43.4992,-72.1041,342.54,2011-02-21,21:40,2011-02-22,02:40,4,,,"clear","Orion","","Rural. There is snow. No streetlights. No vending machines. Several trees.","United States - New Hampshire"
51191,GAN,121,41.3625,-73.9661,49.49,2011-02-21,21:56,2011-02-22,02:56,-9999,,,"over 1/2 of sky","Orion","Cloud cover, skyglow in vicinity","suburban, few streetlights and porch lights, trees and structures in vicinity.","United States - New York"
51192,GAN,122,32.4262,-81.7792,68.91,2011-02-21,20:35,2011-02-22,01:35,4,,,"1/4 of sky","Orion","Partly cloudy in beginning moving from ~West to East, then skies cleared.  The light pollution on campus from the ""glass old looking lamp posts"" and athletic fields lighting make it difficult to see any better.","Urban: On the campus of Georgia Southern University on our astronomy observing deck on top of the Math/Physics Bldg during astronomy lab.  Many street lights, glass globed lamp posts, and athletic fields lighting were below the observing wall, not in direct view.","United States - Georgia"
51193,GAN,123,38.5478,-121.476,8,2011-02-21,19:00,2011-02-22,03:00,3,,,"1/4 of sky","Orion","","streetlights, near a park and a major highway","United States - California"
51194,GAN,124,32.3104,-110.863,884.29,2011-02-21,20:02,2011-02-22,03:02,3,,,"clear","Orion","City lights to south","Suburban","United States - Arizona"
51195,GAN,125,32.4414,-81.7942,68.17,2011-02-21,21:30,2011-02-22,02:30,3,,,"clear","Orion","","","United States - Georgia"
51196,GAN,126,31.8901,-110.95,872.77,2011-02-21,20:05,2011-02-22,03:05,5,,,"clear","Orion","Mostly clear. No sky glow observed.","Rural, no street lights and only a few landscape lights. Interior lights from a few homes.","United States - Arizona"
51197,GAN,127,34.1654,-118.263,168.23,2011-02-21,19:01,2011-02-22,03:01,4,,,"clear","Orion","Nice clear night with moderately good seeing, but being within the light dome of Los Angeles really kills the sky. Carl Sagan might have said, ""Stars: Dozens and dozens of them.""","A couple porchlights nearby, but not enough to make it look different than I often see it from a few hundred yards away with less light immediately nearby.","United States - California"
51198,GAN,128,32.6097,-97.5377,232.19,2011-02-21,20:47,2011-02-22,02:47,5,,,"clear","Orion","The sky glowed like a pretty blue light in the night sky.","I can only see about 3 street lights over here where we are in benbrook,theres only 10 to 20 trees over here,there are also alot of porch lights on where we live,it was perfect weather to look at all of the constilations.","United States - Texas"
51199,GAN,129,44.0206,-123.08,136.18,2011-02-21,19:04,2011-02-22,03:04,3,,,"1/4 of sky","Orion","Thin high clouds, not really 1/4 of the sky, more like 1/8th.  Sky glow to the north and west.","neighborhood to the southeast of downtown. 3 porch lights and one streetlight, Parking lot lights for businesses to the west.","United States - Oregon"
51200,GAN,130,32.6097,-97.5377,232.19,2011-02-21,21:18,2011-02-22,03:18,3,,,"clear","Orion","The sky glowed like a pretty blue light in the night sky.","I can only see about 3 street lights over here where we are in benbrook,theres only 10 to 20 trees over here,there are also alot of porch lights on where we live,it was perfect weather to look at all of the constilations.","United States - Texas"
51201,GAN,131,38.8208,-102.352,1307.12,2011-02-21,20:17,2011-02-22,03:17,2,,,"clear","Orion","","","United States - Colorado"
51202,GAN,132,31.8214,-110.928,987.84,2011-02-21,20:18,2011-02-22,03:18,6,,,"clear","Orion","","","United States - Arizona"
51203,GAN,133,36.7477,-119.772,94.36,2011-02-21,19:26,2011-02-22,03:26,-9999,,,"over 1/2 of sky","Orion","Very cloudy...no stars visible.","Urban, lots of street lights and businesses nearby","United States - California"
51204,GAN,134,42.054,-87.7145,184.01,2011-02-21,21:26,2011-02-22,03:26,-9999,,,"over 1/2 of sky","Orion","There were no stars visible do to the complete cloud cover/ haze.","Suburban area.  4 street lights in the vicinity.  Many porch lights (about 15-20 in view from point of observation).  Light density of mature trees.  Mostly 2 story dwellings, with about 10-20 feet separation between each.","United States - Illinois"
51205,GAN,135,39.1114,-95.1002,276.04,2011-02-21,20:15,2011-02-22,02:15,4,,,"clear","Orion","beautiful clear night","On fairgrounds at edge of small town.  Walked away from a few street lights that were off to the west.","United States - Kansas"
51206,GAN,136,32.4019,-111.009,806.81,2011-02-21,20:32,2011-02-22,03:32,3,,,"clear","Orion","clear/cold","no street lights, no obstructions","United States - Arizona"
51207,GAN,137,39.2167,-95.1243,307.07,2011-02-21,20:35,2011-02-22,02:35,6,,,"clear","Orion","far off sky glow to the south","Rural location, no street lights","United States - Kansas"
51208,GAN,138,32.4217,-111.004,846.16,2011-02-21,20:35,2011-02-22,03:35,5,,,"clear","Orion","","Many of my neighbor's house lights were on at the time I observed.","United States - Arizona"
51209,GAN,139,32.3976,-110.998,789.84,2011-02-21,19:34,2011-02-22,02:34,4,,,"clear","Orion","The sky was easier for me to see today, than usual.","I consider our location suburban.","United States - Arizona"
51210,GAN,140,44.0799,-123.099,126.47,2011-02-21,19:31,2011-02-22,03:31,3,,,"1/2 of sky","Orion","Low clouds starting to move in, had been very clear all day until just after sunset, then clouds starting showing toward NW.  Didn't really move in until about 30 mins ago.  Could see lower half of Orion quite well, but Betelgeuse was in a cloud.  Forecast is for increasing clouds this evening then rain and snow next five days :(.","Urban residential neighborhood with many large trees, one streetlight in culdesac, small houses along road, several porch lights on but generally fairly dark  alth0ugh large shopping center 3/4 mile south but trees block a lot of its skyglow.","United States - Oregon"
51211,GAN,141,28.0582,-82.6881,3.2,2011-02-21,22:34,2011-02-22,03:34,4,,,"clear","Orion","Skyglow to the south, east and west.  Fourth star in Orion's Belt barely visible. Pleiades visible.","Suburban north of Clearwater, west of Tampa.Two streetlights within 40 meters.","United States - Florida"
51212,GAN,142,40.7719,-73.9306,6.56,2011-02-21,22:42,2011-02-22,03:42,-9999,,,"over 1/2 of sky","Orion","","This is cool.","United States - New York"
51213,GAN,143,32.1989,-95.352,152.86,2011-02-21,21:41,2011-02-22,03:41,3,,,"1/2 of sky","Orion","cloudy, windy, cold front moving in.","Suburban; security light 50 yards away; house lights 150 yards away, trees, structures.","United States - Texas"
51214,GAN,144,42.2349,-83.6444,241.92,2011-02-21,22:39,2011-02-22,03:39,3,,,"over 1/2 of sky","Orion","Clearing after a day of snow. Very little haze, but a lot of clouds remain.","Suburban,6 street lights across the road, porch light next door","United States - Michigan"
51215,SQM,145,31.9576,-110.956,824.44,2011-02-21,20:41,2011-02-22,03:41,5,14,4576,"clear","Orion","i loked quikly and saw like that many stars.","you should move there it is a awsome place to stay.","United States - Arizona"
51216,GAN,146,31.809,-106.452,1211.56,2011-02-21,20:35,2011-02-22,03:35,4,,,"clear","Orion","Aside visual inspection without the aide of a telescope,  I have studied Orion with the aide of a six inch dobsonian telescope: Orion StarBlast 6 Astro Reflector Telescope with an f/5.    Again, my observation to GLOBE is with out the aide of a telescope.","","United States - Texas"
51217,GAN,147,36.4871,-94.3088,356.54,2011-02-21,21:49,2011-02-22,03:49,4,,,"1/4 of sky","Orion","The center of the sky was clear with a complete view of Orion.  Cloud cover was around the horizon and a glow was coming from the southeast horizon.","One street light in the front...I looked off the back where there was one porch light.  Combination of rural/suburban. Trees surrounding property but nothing blocking out Orion.","United States - Arkansas"
51218,GAN,148,35.5452,-97.3011,358.98,2011-02-21,21:00,2011-02-22,03:00,4,,,"over 1/2 of sky","Orion","Sky glow to the North West and West.","2 Streetlights","United States - Oklahoma"
51219,GAN,149,32.6962,-114.603,51.45,2011-02-21,20:57,2011-02-22,03:57,4,,,"clear","Orion","","","United States - Arizona"
51220,GAN,150,19.3387,-99.1841,2281.23,2011-02-21,21:30,2011-02-22,03:30,3,,,"1/4 of sky","Orion","Partly cloudy skies, light wind from the north. Cirrus and cirruscumulos.","Densely populated residential area. Intense urban lighting. Biulding with six floors. Urban and university campus. sourrounded by streetlights.","Mexico"
51221,GAN,151,35.6411,-77.3237,8.03,2011-02-21,23:00,2011-02-22,04:00,3,,,"over 1/2 of sky","Orion","","","United States - North Carolina"
51222,GAN,152,32.2332,-110.954,742.18,2011-02-21,21:03,2011-02-22,04:03,4,,,"clear","Orion","","On street, minimal glare, lps lighting . in front of dorm.","United States - Arizona"
51223,GAN,153,35.7246,-97.4073,331.15,2011-02-21,21:35,2011-02-22,03:35,5,,,"1/4 of sky","Orion","Stratus clouds, south.  Sky glow/light dome- NO","suburban,on Air depot,  mild weather, 2 car headlights, many trees nearby.","United States - Oklahoma"
51224,GAN,154,31.8216,-110.905,1027.65,2011-02-21,18:51,2011-02-22,01:51,3,,,"clear","Orion","Clear, bluish but dark","Suburban, dry, house lights, no street lights, car lights","United States - Arizona"
51225,GAN,155,36.0648,-94.171,408.04,2011-02-21,21:26,2011-02-22,03:26,-9999,,,"over 1/2 of sky","Orion","Too cloudy and hazy to see anything really.","Many lights. However, there are a number of them that are downward facing.","United States - Arkansas"
51226,GAN,156,34.4338,-118.561,339.26,2011-02-21,20:32,2011-02-22,04:32,3,,,"1/4 of sky","Orion","","","United States - California"
51227,GAN,157,44.2911,-105.502,1388.07,2011-02-21,21:29,2011-02-22,04:29,4,,,"1/4 of sky","Orion","The sky looks fairly clear with not many clouds; it is a little chilly outside.","This location is my backyard which is located in a new subdivision about a mile outside of Gillette.  There are a few streetlights by my house, snow is on the ground, and I can see the city's light from my house","United States - Wyoming"
51228,GAN,158,34.9711,-79.0101,55.95,2011-02-21,23:17,2011-02-22,04:17,4,,,"1/4 of sky","Orion","There is light haze beneath the moon in the N.E.    The sky glow was soft glow and it the N.E","We live in a suburban location; We have porch lights, but only 3 on the street are on; there are no large trees on street vicinity, just about 6'-8' tall; and 2 light posts.","United States - North Carolina"
51229,GAN,159,34.4377,-118.488,513.67,2011-02-21,20:17,2011-02-22,04:17,4,,,"clear","Orion","No clouds the sky was a bit hazy. The glow is to the south of us, very bright.  North of us much darker.","Looking out from our backyard we see lots of streetlights an shopping centers down in the valley below us.","United States - California"
51230,GAN,160,32.0878,-110.775,918.31,2011-02-21,20:00,2011-02-22,03:00,3,,,"clear","Orion","clear and bright starts","suburban","United States - Arizona"
51231,GAN,161,32.0653,-110.773,930,2011-02-21,20:05,2011-02-22,03:05,4,,,"clear","Orion","clear and bright stars","rural","United States - Arizona"
51232,GAN,162,38.6765,-121.377,29.5,2011-02-21,20:40,2011-02-22,04:40,3,,,"clear","Orion","Haze up to Orion's Belt 360 degrees, streetlight in exactly the wrong place, 0 time dark adapting","suburban, NO SNOW, streetlight 50 feet away, 6 porchlights, 6 full house lights (one story), some trees - bare,","United States - California"
51233,GAN,163,32.1724,-110.946,763.55,2011-02-21,21:43,2011-02-22,04:43,3,,,"clear","Orion","clear, no cloud","","United States - Arizona"
51234,GAN,164,32.1027,-110.773,908.75,2011-02-21,20:15,2011-02-22,03:15,3,,,"clear","Orion","clear and bright","suburban","United States - Arizona"
51235,GAN,165,24.9729,67.0643,51.11,2011-02-21,19:15,2011-02-21,14:15,4,,,"1/4 of sky","Orion","There was a little haze in the sky.  clouds were there right at the top.","vehicles light were there and also trees","Pakistan"
51236,GAN,167,39.3062,-120.336,2107.07,2011-02-21,20:00,2011-02-22,04:00,6,,,"clear","Orion","","","United States - California"
51237,GAN,168,32.1192,-110.773,899.77,2011-02-21,20:20,2011-02-22,03:20,3,,,"clear","Orion","clear and bright starts","suburban","United States - Arizona"
51238,GAN,169,42.3456,-71.5213,93.29,2011-02-21,20:30,2011-02-22,01:30,-9999,,,"over 1/2 of sky","Orion","Very hazy - even full moon was just a blur","Suburban, fresh snow, 6 lights, one street, two neighbor floods","United States - Massachusetts"
51239,GAN,170,32.148,-110.773,878.6,2011-02-21,20:25,2011-02-22,03:25,4,,,"clear","Orion","clear, bright starts","suburban","United States - Arizona"
51240,GAN,171,39.3062,-120.336,2107.07,2011-02-21,20:00,2011-02-22,04:00,6,,,"clear","Orion","","Snow Cover","United States - California"
51241,GAN,172,32.1625,-110.773,854.18,2011-02-21,20:35,2011-02-22,03:35,3,,,"clear","Orion","clear, bright stars","suburban","United States - Arizona"
51242,GAN,173,31.8941,-110.946,872.99,2011-02-21,22:01,2011-02-22,05:01,5,,,"clear","Orion","","","United States - Arizona"
51243,GAN,174,31.8573,-110.974,869.26,2011-02-21,22:06,2011-02-22,05:06,5,,,"clear","Orion","Mostly clear. No sky glow observed.","Rural, no street lights and only a few landscape lights. Interior lights from a few homes.","United States - Arizona"
51244,GAN,175,32.1772,-110.773,873.62,2011-02-21,20:40,2011-02-22,03:40,4,,,"clear","Orion","clear, bright","suburban","United States - Arizona"
51245,GAN,176,32.1919,-110.773,876.98,2011-02-21,20:45,2011-02-22,03:45,3,,,"clear","Orion","clear, bright","suburban","United States - Arizona"
51246,SQM,177,47.5908,-122.198,35.59,2011-02-21,21:00,2011-02-22,05:00,-9999,16.86,5861,"over 1/2 of sky","Orion","100% cloudy","urban, no nearby street lights or any lights","United States - Washington"
51247,GAN,178,38.4844,-81.3644,227.29,2011-02-22,20:38,2011-02-23,01:38,-9999,,,"over 1/2 of sky","Orion","overcast","delford c","United States - West Virginia"
51248,GAN,179,33.432,-88.8138,99.92,2011-02-21,23:11,2011-02-22,05:11,3,,,"clear","Orion","","Suburban location. 60% surrounded by trees up to about 30 degrees above horizon. Moon was just beginning to rise in the east. Perhaps 10-15 degrees above horizon. Weather is cool and damp. Moderate sky glow to the north. Low skyglow elsewhere. Three street lights visible from current location.","United States - Mississippi"
51249,GAN,180,35.6915,-97.4516,345.15,2011-02-21,22:50,2011-02-22,04:50,4,,,"1/4 of sky","Orion","sky glow south east,cloud types cirrocumulus,","suburban,night light from neighbour's window,few trees,","United States - Oklahoma"
51250,SQM,182,35.201,-97.4509,353.27,2011-02-21,21:25,2011-02-22,03:25,4,18.2,,"1/2 of sky","Orion","Cumulus","Suburban, 2 street lights, adjacent to new lighting fraternity parking lot; lots of glare into residential neighborhood","United States - Oklahoma"
51251,GAN,183,61.2108,23.7638,90.17,2011-02-21,22:35,2011-02-21,20:35,4,,,"clear","Orion","","","Finland"
51252,GAN,184,34.0172,-118.436,36.22,2011-02-21,21:45,2011-02-22,05:45,3,,,"over 1/2 of sky","Orion","Puffy Clouds moving slowly, but I could see the sky occasionally to see Orion.  It looks like a typical viewing night here in Los Angeles","Suburban, 4 streetlights","United States - California"
51253,SQM,185,36.6895,-119.093,939.78,2011-02-21,21:51,2011-02-22,05:51,2,20.94,5486,"over 1/2 of sky","Orion","Mostly cloudy.  Could only see a few stars and could not see orion, but could take SQM reading.","rural foothills.","United States - California"
51254,GAN,186,32.9381,-117.121,182.66,2011-02-21,21:52,2011-02-22,05:52,4,,,"clear","Orion","","","United States - California"
51255,GAN,187,4.82882,7.06027,20.83,2011-02-21,20:40,2011-02-21,19:40,3,,,"1/4 of sky","Orion","Sky a bit hazy due to early rain and northern cloud and sky illumination/glow from the west.","Urban, newly developing neighbourhood. Purely residential and no street light within 6km radius. Right within my premises with fence light on. The neighbourhood is predominately bungalows and one story type buildings and few big trees.","Nigeria"
51256,SQM,188,48.3495,-123.566,63.09,2011-02-21,19:50,2011-02-22,03:50,6,21.09,,"1/4 of sky","Orion","fog over the ocean to the south to the elevation of Lepus. Orion perfectly clear. skyglow of the greater Victoria area to the east, north-east.     Faintest stars seen were 6.3 magnitude","Semi-rural, at an elevation of approx 90metres overlooking the Strait of Juan de Fuca with the lights of Port Angeles Washington 40km to the south. No direct lights in the near vacinity but a small marina with dock lights situated on the water directly below.","Canada"
51257,GAN,189,-25.764,28.2834,1356.39,2011-02-21,21:00,2011-02-21,19:00,-9999,,,"over 1/2 of sky","Orion","","Suburban","South Africa"
51258,GAN,190,37.543,45.0694,1349.73,2011-02-21,22:05,2011-02-21,18:35,4,,,"1/4 of sky","Orion","","I was standing 5 meters away from streetlight, in its shadow.","Iran"
51259,GAN,191,42.9596,27.7165,236.7,2011-02-21,00:00,2011-02-20,22:00,3,,,"over 1/2 of sky","Orion"," "," .     /  100-/  .      .","Bulgaria"
51260,GAN,192,-37.7186,154.141,-4580.32,2011-02-22,19:47,2011-02-22,19:47,-9999,,,"over 1/2 of sky","Orion","Heavy cloud - no stars visible","Regional, no street lights, or other light sources. There are some trees but no enough to hide the stars.",""
51261,GAN,193,44.5612,5.99732,1156.36,2011-02-21,22:17,2011-02-21,21:17,6,,,"clear","Orion","","","France"
51262,GAN,194,42.5531,2.96875,28.45,2011-02-22,00:00,2011-02-21,23:00,-9999,,,"over 1/2 of sky","Orion","","latitude : 45,81225  longitude : 1,27595","France"
51263,GAN,195,51.6912,19.6757,209.77,2011-02-21,19:47,2011-02-21,18:47,5,,,"1/4 of sky","Orion","Clouds near to NW horizon. Light from near city of Lodz visible but in oposite side of sky than Orion (on N). Sky almost perfect.","Thin snow cover. Observation done from Pope Silvester II's Astronomical Observatory in Bukowiec","Poland"
51264,GAN,196,-43.1191,147.054,242.84,2011-02-22,21:24,2011-02-22,10:24,4,,,"1/4 of sky","Orion","","Rural, no streetlights or other lights in the vicinity.","Australia"
51265,GAN,197,-37.8816,145.184,76.59,2011-02-22,20:30,2011-02-22,09:30,-9999,,,"over 1/2 of sky","Orion","Full cloud over entire sky. No stars visible.","Suburban. Streetlights every fifth house or so. Street light directly outside that is visible from sky viewing area.","Australia"
51266,GAN,198,40.2992,21.7878,707.68,2011-02-21,20:36,2011-02-21,18:36,4,,,"1/2 of sky","Orion","","","Greece"
51267,GAN,201,35.6352,-77.4706,25.62,2011-02-21,19:00,2011-02-22,00:00,3,,,"1/2 of sky","Orion","","","United States - North Carolina"
51268,GAN,202,21.6901,110.896,19.98,2011-02-22,20:10,2011-02-22,12:10,3,,,"1/4 of sky","Orion","Foggy haze in the lower, the air is humid.","Residential areas in the urban fringe, the opposite side of the landing lights.","China"
51269,GAN,203,-37.5677,143.861,421.68,2011-02-22,23:47,2011-02-22,12:47,5,,,"1/4 of sky","Orion","","","Australia"
51270,GAN,204,44.4258,8.84772,10.95,2011-02-21,19:30,2011-02-21,18:30,3,,,"1/4 of sky","Orion","","","Italy"
51271,GAN,205,51.7005,7.12724,35,2011-02-21,22:00,2011-02-21,21:00,3,,,"clear","Orion","clear sky","suburban, chemical factory nearby","Germany"
51272,GAN,206,8.9747,-79.5579,8.57,2011-02-21,19:00,2011-02-22,00:00,3,,,"clear","Orion","very clear","suburban location","Panama"
51273,GAN,207,43.4496,-80.4745,332.73,2011-02-21,22:13,2011-02-22,03:13,3,,,"clear","Orion","Arena complex dome to south east","Urban, House on corner    Dome from arena complex 4 blocks away","Canada"
51274,GAN,208,50.7837,7.19182,60,2011-02-21,21:30,2011-02-21,20:30,1,,,"over 1/2 of sky","Orion","","","Germany"
51275,GAN,209,28.6353,77.225,214.01,2011-02-22,19:50,2011-02-22,14:20,3,,,"1/4 of sky","Orion","poor visibility and a lot of smog (12 stars visible to me).","urban location  snow cover= none  number of streetlights=10  trees=many","India"
51276,GAN,210,28.6997,77.1263,217.38,2011-02-22,20:17,2011-02-22,14:47,3,,,"1/4 of sky","Orion","light sky","urban area, 3 street lights near-by","India"
51277,GAN,211,22.3316,73.1956,33.14,2011-02-21,20:30,2011-02-21,15:00,3,,,"clear","Orion","","","India"
51278,GAN,212,28.5644,77.355,201.03,2011-02-22,20:30,2011-02-22,15:00,3,,,"1/4 of sky","Orion","","","India"
51279,GAN,213,22.3434,73.1888,38.08,2011-02-22,20:28,2011-02-22,14:58,4,,,"clear","Orion","The sky around orion is clear but 20 deg radius around orion was partly covered with thin cloud film.","My location is a Suburb of city Vadodara of Gujarat State, India.","India"
51280,GAN,214,22.3433,73.1887,38.18,2011-02-22,20:29,2011-02-22,14:59,4,,,"clear","Orion","the sky around orion is clear.","suburban of vadodara of gujarat state, india.","India"
51281,GAN,215,22.3165,73.2023,38.64,2011-02-22,20:33,2011-02-22,15:03,4,,,"clear","Orion","","area is urban  only two streetlights","India"
51282,GAN,216,22.3165,73.2024,38.68,2011-02-22,20:40,2011-02-22,15:10,3,,,"clear","Orion","","area was urban  only two streetlight","India"
51283,GAN,217,37.8859,-122.474,4.91,2011-02-21,21:00,2011-02-22,05:00,3,,,"over 1/2 of sky","Orion","Many clouds with multiple layers. Sky glow from the East, from SF and East Bay","Some neighbor light trespass.","United States - California"
51284,GAN,218,60.6174,24.8751,99,2011-02-21,21:30,2011-02-21,19:30,4,,,"clear","Orion","Some frost clouds (haze) on the sky allover (but better than average at winter time), town light dome N / NW","suburban, snow cover, nearby light sources 15-20 (mostly obscured at the observation point)","Finland"
51285,GAN,219,22.3169,73.2029,39.15,2011-02-22,20:15,2011-02-22,14:45,3,,,"clear","Orion","","","India"
51286,GAN,220,40.7833,-73.9077,7.02,2011-02-21,20:00,2011-02-22,01:00,-9999,,,"over 1/2 of sky","Orion","","","United States - New York"
51287,GAN,221,22.3171,73.2028,39.19,2011-02-22,20:15,2011-02-22,14:45,4,,,"clear","Orion","","","India"
51288,GAN,222,38.0319,46.36,1562.06,2011-02-22,19:00,2011-02-22,15:30,3,,,"clear","Orion","","Tabriz city, streetlights are available","Iran"
51289,GAN,223,28.6579,77.3652,203.64,2011-02-22,21:14,2011-02-22,15:44,2,,,"1/2 of sky","Orion","It was hazy and thin fog. Visibility was below average.","Observed from 3rd floor of the building from terrace, market towards North.","India"
51290,GAN,224,4.77033,100.937,41.59,2011-02-22,23:50,2011-02-22,15:50,4,,,"over 1/2 of sky","Orion","Rainy night","Sub urban","Malaysia"
51291,GAN,225,23.8858,76.7969,389.44,2011-02-22,00:00,2011-02-21,18:30,3,,,"1/4 of sky","Orion","the sky had a lot of smog and light polution.so some bright stars such as betelgeuse and regel were visible.","urban area.4 street lights.many tall trees.","India"
51292,GAN,225,28.6935,77.0824,218.08,2011-02-22,21:30,2011-02-22,16:00,2,,,"clear","Orion","There was no haze in the sky.  There were no clouds in the sky.","I reside in an urban location which is near to a market place.There are lots many shops in my vicinity. There is a streetlight right outside my street.","India"
51293,GAN,226,28.6935,77.0824,218.08,2011-02-22,21:30,2011-02-22,16:00,2,,,"clear","Orion","There was no haze in the sky.  There were no clouds in the sky.","I reside in an urban location which is near to a market place.There are lots many shops in my vicinity. There is a streetlight right outside my street.","India"
51294,GAN,228,28.8891,76.6138,222.92,2011-02-22,20:30,2011-02-22,15:00,4,,,"clear","Orion","CLEAR SKY","URBAN LOCATION, THREE/FOUR STREETS IN THE VICINITY, HORIZON WITH ORANGE GLOW DUE TO STREET LIGHTS FAR AWAY. VERY FEW TREES AROUND.","India"
51295,GAN,229,6.91509,79.874,13.95,2011-02-22,22:18,2011-02-22,16:48,-9999,,,"over 1/2 of sky","Orion","Very cloudy with slight drizzle","Two street lights  Trees","Sri Lanka"
51296,GAN,230,22.3,78.2,556.23,2011-02-22,21:44,2011-02-22,16:14,3,,,"1/2 of sky","Orion","The sky was cloudy. The clouds were moving from south to north.","There were three street lights.","India"
51297,GAN,231,22.3272,73.1769,36.97,2011-02-21,20:44,2011-02-21,15:14,4,,,"clear","Orion","","There were 10 street lights.","India"
51298,GAN,232,51.5634,5.08981,14,2011-02-21,00:00,2011-02-20,23:00,4,,,"clear","Orion","Low haze/light glow around horizon/ most pronounced in the south (direction of town centre).","Urban location. One porchlight to north; three porchlights to east. Located in a street - houses all around, but southern horizon almost free of tall buildings.","The Netherlands"
51299,GAN,233,28.6701,77.0855,218.72,2011-02-22,23:26,2011-02-22,17:56,3,,,"over 1/2 of sky","Orion","clouds all over","cloudy","India"
51300,GAN,234,17.0838,54.1509,42.12,2011-02-22,21:57,2011-02-22,17:57,3,,,"clear","Orion","","suburban,  many street lights nearby,  house lights    standing on roof.","Oman"
51301,GAN,235,53.8764,18.8097,54.39,2011-02-22,19:00,2011-02-22,18:00,6,,,"clear","Orion","","","Poland"
51302,GAN,236,54.0875,18.7911,27.45,2011-02-22,19:13,2011-02-22,18:13,4,,,"clear","Orion","","","Poland"
51303,GAN,237,50.7686,7.19879,74.73,2011-02-22,19:10,2011-02-22,18:10,3,,,"clear","Orion","","","Germany"
51304,GAN,238,40.7663,-73.9076,23.63,2011-02-21,20:19,2011-02-22,01:19,-9999,,,"over 1/2 of sky","Orion","","","United States - New York"
51305,GAN,239,42.9779,-70.9476,12.31,2011-02-21,20:00,2011-02-22,01:00,-9999,,,"over 1/2 of sky","Orion","Totally overcast.","","United States - New Hampshire"
51306,GAN,240,53.8349,18.6957,39.72,2011-02-22,19:22,2011-02-22,18:22,4,,,"1/4 of sky","Orion","","","Poland"
51307,GAN,241,49.711,17.8001,488.57,2011-02-22,19:44,2011-02-22,18:44,-9999,,,"over 1/2 of sky","Orion","","","Czech Republic"
51308,GAN,242,49.7786,17.7509,481.55,2011-02-22,19:45,2011-02-22,18:45,-9999,,,"clear","Orion","","","Czech Republic"
51309,GAN,243,49.7786,17.7509,481.55,2011-02-22,19:47,2011-02-22,18:47,3,,,"clear","Orion","","","Czech Republic"
51310,GAN,244,49.7759,17.7502,465.24,2011-02-22,19:47,2011-02-22,18:47,-9999,,,"clear","Orion","","","Czech Republic"
51311,GAN,245,39.8503,-105.116,1693.28,2011-02-21,20:35,2011-02-22,03:35,3,,,"clear","Orion","","Suburban","United States - Colorado"
51312,GAN,246,50.7752,7.20283,63.99,2011-02-22,19:50,2011-02-22,18:50,2,,,"clear","Orion","","Only one street light","Germany"
51313,GAN,247,49.7757,17.7533,470.47,2011-02-22,20:04,2011-02-22,19:04,-9999,,,"over 1/2 of sky","Orion","","","Czech Republic"
51314,GAN,248,-26.0299,28.0146,1494.35,2011-02-22,21:11,2011-02-22,19:11,3,,,"1/4 of sky","Orion","Had a thunder storm earlier.    Slight cloud cover currently. Would probably be a Mag 4 or 4.5 if the sky was clear of cloud cover and haze.","Urban near a large shopping and casino complex. Conditions vary depending on activity at these.","South Africa"
51315,GAN,249,-26.1131,27.9026,1562.37,2011-02-22,21:24,2011-02-22,19:24,3,,,"1/4 of sky","Orion","sky glow light all around","lots of porch lights and streetlights","South Africa"
51316,GAN,250,45.882,-66.7728,87,2011-02-21,23:00,2011-02-22,03:00,3,,,"over 1/2 of sky","Orion","too many clouds","suburban. 2 dusk to dawn","Canada"
51317,GAN,251,54.1364,18.7196,19.85,2011-02-22,20:32,2011-02-22,19:32,4,,,"clear","Orion","","Rural","Poland"
51318,GAN,252,54.1362,18.7208,20.64,2011-02-22,20:40,2011-02-22,19:40,4,,,"clear","Orion","","rural","Poland"
51319,GAN,253,42.9917,27.7225,19.22,2011-02-22,21:34,2011-02-22,19:34,3,,,"over 1/2 of sky","Orion","      .   .   """"."," .        47,                .","Bulgaria"
51320,GAN,254,45.7593,0.515481,264.52,2011-02-22,20:47,2011-02-22,19:47,-9999,,,"over 1/2 of sky","Orion","Fog. :-(","","France"
51321,GAN,255,54.0289,18.3584,123.22,2011-02-22,20:20,2011-02-22,19:20,5,,,"clear","Orion","","","Poland"
51322,GAN,256,54.1384,18.8483,2.76,2011-02-22,20:10,2011-02-22,19:10,5,,,"clear","Orion","","Obserwacja miaa miejsce na wsi. Czysty horyzont,  pokrywa niena","Poland"
51323,GAN,257,53.9927,18.7003,70.97,2011-02-22,20:35,2011-02-22,19:35,5,,,"clear","Orion","","","Poland"
51324,GAN,258,53.9337,18.7684,52.47,2011-02-22,20:10,2011-02-22,19:10,4,,,"clear","Orion","Clear and frosty atmosphere, seeing 5/10","Small village. 400 meters from the lights.","Poland"
51325,GAN,259,48.4904,8.00376,223.98,2011-02-22,20:40,2011-02-22,19:40,4,,,"clear","Orion","light haze","rural to suburban, some lighted houses in the vicinity","Germany"
51326,GAN,260,50.2358,18.2042,187.81,2011-02-22,21:00,2011-02-22,20:00,1,,,"over 1/2 of sky","Orion","","","Poland"
51327,GAN,261,54.1092,18.8056,6,2011-02-22,21:00,2011-02-22,20:00,3,,,"1/4 of sky","Orion","","","Poland"
51328,GAN,262,53.4368,19.9873,219.98,2011-02-22,21:00,2011-02-22,20:00,4,,,"clear","Orion","","Rural","Poland"
51329,GAN,263,36.1017,-96.6778,262.8,2011-02-21,23:00,2011-02-22,05:00,4,,,"clear","Orion","clear","","United States - Oklahoma"
51330,GAN,264,39.1488,-94.5568,238.44,2011-02-22,20:00,2011-02-23,02:00,1,,,"clear","Orion","city glow","Urban","United States - Missouri"
51331,GAN,265,40.602,-74.6774,22.19,2011-02-21,19:27,2011-02-22,00:27,4,,,"clear","Orion","","","United States - New Jersey"
51332,GAN,266,41.9338,25.5643,190.32,2011-02-22,20:20,2011-02-22,18:20,-9999,,,"over 1/2 of sky","Orion","Haskovo cold,wet,foggy, and cloudy","urban location,Snow cover,Number of streetlights-3 and trees","Bulgaria"
51333,GAN,267,50.7725,7.20861,71.24,2011-02-22,20:45,2011-02-22,19:45,3,,,"clear","Orion","","","Germany"
51334,GAN,268,51.2517,4.45017,5,2011-02-22,21:30,2011-02-22,20:30,4,,,"over 1/2 of sky","Orion","Pretty clouded up. I had to wait for openings in the clouds to pass by the field of view where Orion resided. Rather mag 3.5-4 then 4-4.5","Suburban-Urban. Garden enclosed by houses around the block, thus shielded by most direct streetlights.","Belgium"
51335,GAN,269,50.7784,7.2105,64.98,2011-02-22,21:43,2011-02-22,20:43,5,,,"1/4 of sky","Orion","","","Germany"
51336,GAN,270,50.7828,7.20363,62,2011-02-23,21:46,2011-02-23,20:46,5,,,"1/2 of sky","Orion","","","Germany"
51337,GAN,271,54.1781,18.6364,61.87,2011-02-22,20:48,2011-02-22,19:48,4,,,"1/4 of sky","Orion","5 minuts before my observations it was snowing. There was some clouds. Clouds drifted in the direction of Gdansk. There was no haze.","Ulkowy is a small village 20 km from Gdansk. It is rular, suburban. On the ground and on the trees was snow cover. There are a few lights on the street next to the place of my observations.","Poland"
51338,GAN,272,50.1769,10.8789,409.08,2011-02-22,21:48,2011-02-22,20:48,3,,,"1/2 of sky","Orion","","","Germany"
51339,GAN,273,38.0511,-120.302,1243.15,2011-02-21,22:15,2011-02-22,06:15,5,,,"clear","Orion","It was a particularly clear evening, little haze or sky glow.","We are located in the Sierra Nevada foothills at an elevation of 4100ft.  Our observation site is over 200 yards from the nearest streetlight.  Currently there is several feet of snow on the ground.","United States - California"
51340,GAN,274,32.4239,-81.7846,67.69,2011-02-21,20:34,2011-02-22,01:34,3,,,"1/4 of sky","Orion","","","United States - Georgia"
51341,GAN,275,49.4722,8.84945,179.07,2011-02-22,21:15,2011-02-22,20:15,5,,,"clear","Orion","","","Germany"
51342,SQM,276,41.1444,22.501,62.54,2011-02-22,00:00,2011-02-21,23:00,-9999,18.6,,"over 1/2 of sky","Orion","","","Macedonia (FYROM)"
51343,SQM,277,41.1444,22.5011,62.4,2011-02-21,00:00,2011-02-20,23:00,-9999,18.6,,"over 1/2 of sky","Orion","","","Macedonia (FYROM)"
51344,GAN,278,50.7764,7.21142,67.43,2011-02-22,22:46,2011-02-22,21:46,2,,,"1/2 of sky","Orion","haze","suburban","Germany"
51345,GAN,279,50.9243,7.09446,56.78,2011-02-22,00:00,2011-02-21,23:00,4,,,"1/4 of sky","Orion","","","Germany"
51346,GAN,280,50.9243,7.09446,56.78,2011-02-22,20:45,2011-02-22,19:45,4,,,"1/4 of sky","Orion","","","Germany"
51347,GAN,281,32.4262,-81.7792,68.91,2011-02-21,20:40,2011-02-22,01:40,4,,,"1/4 of sky","Orion","light pollution all around    thin clouds that moved off","urban college campus, many streetlights and athletic field lights.","United States - Georgia"
51348,GAN,283,38.9311,-104.78,1971.46,2011-02-22,19:54,2011-02-23,02:54,3,,,"clear","Orion","This area is usually pretty dry, and tonight it's cold as well.","My location is a nicely dark suburban neighborhood on the north side of Colorado Springs, with Orion sitting square on the glow southward over the rest of the city.  Although Orion's position is in Mag 3 skies, I chose this house because the view overhead is more like Mag 4 (meaning that I can see the arms in Gemini).","United States - Colorado"
51349,SQM,284,48.9313,8.2685,120.26,2011-02-22,23:21,2011-02-22,22:21,5,19.99,,"clear","Orion","light haze    Measurenent of the Night Sky was 19.99m","Land but Village with 10000 humans no snow","Germany"
51350,GAN,286,20.5931,-100.392,1825.79,2011-02-21,21:00,2011-02-22,03:00,4,,,"clear","Orion","","","Mexico"
51351,GAN,287,43.8109,-72.1587,164.05,2011-02-22,18:24,2011-02-22,23:24,4,,,"clear","Orion","no clouds, pretty dark, and stars quite bright.","snowy place, country area.","United States - New Hampshire"
51352,GAN,288,3.48811,-76.4958,952.13,2011-02-22,18:24,2011-02-22,23:24,1,,,"over 1/2 of sky","Orion","totally clowdy, probably rain later...","urban location, no snow, 3 street lights, 0 porchligths, 1 near tree. some power lines upon...","Colombia"
51353,GAN,289,35.5611,-77.3683,19.84,2011-02-22,18:47,2011-02-22,23:47,3,,,"clear","Orion","clear sky but hard to see because of street lights","","United States - North Carolina"
51354,GAN,290,-25.3188,152.69,42.8,2011-02-22,20:33,2011-02-22,10:33,5,,,"clear","Orion","","25.31888889s  152.69e  Rural  1 streetlight","Australia"
51355,GAN,291,30.5979,34.8454,511.2,2011-02-22,22:00,2011-02-22,20:00,6,,,"1/4 of sky","Orion","Light, high haze, clearing from time to time. Some mares' tail cirrus in the sky. Light dome in the east from the town of Mitzpe Ramon, partially blocked by desert hills, only affected seeing in the east.","High plateau at 2783 feet above sea level. Above the small town of Mitzpe Ramon (Pop. 5000) and just below the Wise Observatory of Tel Aviv University. Very dark sky site with light dome from Mitzpe Ramon to the east, but partially obscured by desert hills. In the middle of the Israeli Negev, next to Machtesh Ramon.","Israel"
51356,SQM,292,40.7316,-82.8144,350.85,2011-02-22,18:47,2011-02-22,23:47,2,16.01,1080,"clear","Orion","Still some twilight","Angell hall student observatory, urban setting but no direct lighting","United States - Ohio"
51357,GAN,293,40.1287,-75.1226,87.77,2011-02-22,19:00,2011-02-23,00:00,5,,,"clear","Orion","this is my typical - above average - go out and observe in the back yard - clear sky, this is about the best it gets here, most of the time it's around the mag 4 with humidity or light clouds, the clouds glow orange to the south, and blue white to the north","our new neighbors have installed a double floodlight pointed at my yard, but there is a tree to block it directly, everyone around here thinks it's their duty to light up the world and prevent crime","United States - Pennsylvania"
51358,GAN,294,32.4315,-81.735,60.89,2011-02-21,21:35,2011-02-22,02:35,4,,,"1/4 of sky","Orion","","Georgia Southern University","United States - Georgia"
51359,GAN,295,41.4569,15.5543,75.58,2011-02-23,18:50,2011-02-23,17:50,3,,,"clear","Orion","","","Italy"
51360,SQM,296,42.2771,-83.7382,267.96,2011-02-23,19:10,2011-02-24,00:10,1,16.4,1080,"clear","Orion","The sky looked pitch black compared to the lights.  Orion was partially obscured by trees.","UofM diag - center of campus, many many streetlights, but also lots of trees. This is a pedestrian area with lots of grass and brick walkways surrounded by university buildings.","United States - Michigan"
51361,GAN,297,35.6349,-77.4692,25.53,2011-02-22,19:29,2011-02-23,00:29,4,,,"clear","Orion","","","United States - North Carolina"
51362,SQM,298,42.2768,-83.7401,267.7,2011-02-22,19:35,2011-02-23,00:35,3,17.04,1080,"clear","Orion","Very clear and getting very cold!","Angell Hall Student Observatory.  Urban observatory surrounded by plenty of lights, but nothing directly visible from the roof.","United States - Michigan"
51363,GAN,299,42.9165,-77.5034,284.87,2011-02-22,19:31,2011-02-23,00:31,3,,,"clear","Orion","Completely clear","Rural, no obstructions","United States - New York"
51364,GAN,300,32.75,-96.5606,136.34,2011-02-22,19:32,2011-02-23,01:32,-9999,,,"over 1/2 of sky","Orion","Couldn't see the stars. Clouds, heavy Clouds.","My house.","United States - Texas"
51365,GAN,301,35.4397,-77.473,12.02,2011-02-22,19:33,2011-02-23,00:33,4,,,"clear","Orion","Clear as a bell.","Rural","United States - North Carolina"
51366,GAN,302,32.7764,-79.9311,4.02,2011-02-22,19:36,2011-02-23,00:36,-9999,,,"over 1/2 of sky","Orion","Clouds blanketed sky, I could see nothing.","","United States - South Carolina"
51367,GAN,303,35.6974,139.746,16.68,2011-02-22,19:00,2011-02-22,10:00,3,,,"clear","Orion","No clouds.","The direction is the central of Tokyo,  many buildings are around this elementary school.    But there is a big park and big Shinto shrine near here.","Japan"
51368,GAN,304,32.6579,-79.9121,-3.21,2011-02-22,19:38,2011-02-23,00:38,7,,,"clear","Orion","","","United States - South Carolina"
51369,GAN,305,32.7941,-79.8626,7.77,2011-02-22,19:36,2011-02-23,00:36,-9999,,,"clear","Orion","lots of man-made lights","","United States - South Carolina"
51370,GAN,306,40.7734,-73.9016,18.47,2011-02-22,19:41,2011-02-23,00:41,3,,,"clear","Orion","","","United States - New York"
51372,GAN,308,40.6907,-74.4233,71.17,2011-02-22,19:33,2011-02-23,00:33,4,,,"clear","Orion","Clear","Suburban  Snow cover  Tall trees  Lights through neighbor's window","United States - New Jersey"
51373,GAN,309,32.9108,-79.8045,4.12,2011-02-22,19:42,2011-02-23,00:42,-9999,,,"1/4 of sky","Orion","scattered clouds","In between Rural and suburban, no snow, 1 streetlight, 3 far away porchlights 2 small porchlights at my house, no trees","United States - South Carolina"
51374,GAN,310,37.1373,-80.7006,622.29,2011-02-21,21:55,2011-02-22,02:55,4,,,"1/4 of sky","Orion","partly cloudy, high winds.","2 miles out from small town.  Lights of Blacksburg, VA 15 miles away, light up northeastern skies.  Lights of town and industry illuminate horizon to the south.","United States - Virginia"
51375,GAN,311,32.7764,-79.9311,4.02,2011-02-22,19:42,2011-02-23,00:42,-9999,,,"over 1/2 of sky","Orion","clouds moving east","","United States - South Carolina"
51376,GAN,312,40.4469,-92.6562,253.71,2011-02-22,19:47,2011-02-23,01:47,3,,,"1/2 of sky","Orion","Hazy","","United States - Missouri"
51377,GAN,313,40.6858,-73.9521,16.65,2011-02-22,19:49,2011-02-23,00:49,1,,,"clear","Orion","I didn't so many stars. Just 3 or 4 stars. But I didn't find Orion. Also the sky was very clear.","","United States - New York"
51378,GAN,314,35.5894,-77.3379,17.54,2011-02-22,19:49,2011-02-23,00:49,4,,,"clear","Orion","There isn't very much light pollution.","","United States - North Carolina"
51379,GAN,315,43.4191,-80.5571,380,2011-02-22,19:59,2011-02-23,00:59,3,,,"clear","Orion","Clear. Sky glow/light dome from city center in N / NE.","suburban bordering on rural area to the S and SW. a few houses with outside porch lights on. Three street lights (cobra sag lens, non-FCO) close by.","Canada"
51380,GAN,316,38.8037,-77.2998,107.15,2011-02-22,19:47,2011-02-23,00:47,2,,,"over 1/2 of sky","Orion","Very cloudy night. Just had one opening to make this recording.","Subburban location; some snow cover; street lamps in the neighborhood; viewing over townhouses","United States - Virginia"
51381,GAN,317,45.5891,-73.4606,14.29,2011-02-22,20:10,2011-02-23,01:10,4,,,"clear","Orion","","4535'20.63""N   7327'37.99""O","Canada"
51382,GAN,318,32.7791,-79.9468,3.57,2011-02-22,20:01,2011-02-23,01:01,-9999,,,"over 1/2 of sky","Orion","","","United States - South Carolina"
51383,GAN,319,43.5442,-72.2364,366.96,2011-02-22,19:34,2011-02-23,00:34,4,,,"clear","Orion","sky is completely clear, brighter and more abundant stars than last night, moon is again not visible, there are no clouds, haze, or glow coming from the sky.","rural nh, snow cover, forest behind, field in front, no streetlights, one porch light, one neighbor's house visible with one porch light on as well","United States - New Hampshire"
51384,GAN,320,42.1884,-76.8069,285.09,2011-02-22,20:11,2011-02-23,01:11,4,,,"clear","Orion","No clouds. Clear. Temp was about 20 degrees","Suburban about 3 miles from a mall and an airport. Ground was snow covered to a depth of 1 foot.","United States - New York"
51385,GAN,321,35.5657,-77.3781,21.38,2011-02-22,20:05,2011-02-23,01:05,3,,,"clear","Orion","","","United States - North Carolina"
51386,GAN,322,27.3364,-82.5307,6.43,2011-02-22,20:20,2011-02-23,01:20,3,,,"clear","Orion","","","United States - Florida"
51387,GAN,323,9.04961,-79.4679,42.7,2011-02-22,20:12,2011-02-23,01:12,4,,,"clear","Orion","sky clear","Urban location.  There are 4 street light within 50 mts. that are shielded from my view.","Panama"
51388,GAN,324,32.7258,-79.9726,5.59,2011-02-22,20:01,2011-02-23,01:01,3,,,"over 1/2 of sky","Orion","The clouds pretty much covers the whole sky","","United States - South Carolina"
51389,GAN,325,8.99463,-79.5242,24.12,2011-02-22,20:14,2011-02-23,01:14,3,,,"clear","Orion","cloudless and clear","Urban, at my parking lot, surrounded by 5 story buildings","Panama"
51390,GAN,326,43.5192,-72.1673,411.78,2011-02-21,20:22,2011-02-22,01:22,6,,,"clear","Orion","","No artificial light, several trees, no snow falling, rural.","United States - New Hampshire"
51391,GAN,327,43.519,-72.1679,414.01,2011-02-22,20:25,2011-02-23,01:25,4,,,"1/4 of sky","Orion","Some clouds, a little wind","no street lights, several trees, no buildings in sight but my house, rural.","United States - New Hampshire"
51392,GAN,328,35.63,-77.4291,15.04,2011-02-22,20:21,2011-02-23,01:21,2,,,"1/4 of sky","Orion","I didn't see the belt of the o'Ryan.","It was hard to see.","United States - North Carolina"
51393,SQM,329,42.2349,-83.6452,243.8,2011-02-22,20:29,2011-02-23,01:29,3,17.67,1080,"clear","Orion","","Residential, on the sidewalk.  Several street lights and porch lights","United States - Michigan"
51394,GAN,330,35.1134,-80.8709,171.89,2011-02-21,20:40,2011-02-22,01:40,3,,,"clear","Orion","I was able to see Orions belt and some other stars that make up the constelation. Tonight is actually a pretty clear night to spot some stars for being in the city.","","United States - North Carolina"
51395,GAN,331,35.2266,-93.0575,115.63,2011-02-22,19:29,2011-02-23,01:29,4,,,"clear","Orion","very clear.","suburb, just on a small road, had a few street light close to my house.","United States - Arkansas"
51396,GAN,332,30.1914,-97.9075,290.32,2011-02-22,19:32,2011-02-23,01:32,4,,,"1/4 of sky","Orion","","","United States - Texas"
51397,GAN,333,35.1165,-80.8716,187.67,2011-02-22,20:32,2011-02-23,01:32,1,,,"1/2 of sky","Orion","I was not able to see very many stars tonight. The sky had a light glow and I was not able to see well through it.","","United States - North Carolina"
51398,GAN,334,35.9127,-78.7494,152.8,2011-02-22,20:34,2011-02-23,01:34,3,,,"1/4 of sky","Orion","","","United States - North Carolina"
51399,GAN,335,30.3002,-97.7611,178.36,2011-02-22,19:34,2011-02-23,01:34,3,,,"1/4 of sky","Orion","Slightly cloudy and plenty of stargazing.","","United States - Texas"
51400,GAN,336,14.6487,121.073,66.76,2011-02-22,19:00,2011-02-22,11:00,3,,,"clear","Orion","slight haze all over the sky","urban","Philippines"
51401,GAN,337,43.6788,-79.4241,145.4,2011-02-22,20:38,2011-02-23,01:38,3,,,"clear","Orion","Haze to the north.","Urban backyard, snow-covered , street lights in view.","Canada"
51402,GAN,338,32.4196,-110.995,843.52,2011-02-21,20:15,2011-02-22,03:15,5,,,"1/4 of sky","Orion","There were very few amount of clouds to the North-East.","NONE","United States - Arizona"
51403,GAN,339,32.7764,-79.9311,4.02,2011-02-22,20:32,2011-02-23,01:32,-9999,,,"over 1/2 of sky","Orion","","","United States - South Carolina"
51404,GAN,340,30.312,-97.7666,163.65,2011-02-22,18:48,2011-02-23,00:48,4,,,"clear","Orion","The sky is clear.","","United States - Texas"
51405,GAN,341,30.3978,-97.762,214.76,2011-02-22,19:14,2011-02-23,01:14,3,,,"1/4 of sky","Orion","","3 streetlights  hills  cliff on one side (NE)  no snow  other houses porch lights  many trees","United States - Texas"
51406,GAN,342,14.6487,121.073,66.76,2011-02-22,21:30,2011-02-22,13:30,3,,,"1/4 of sky","Orion","","urban","Philippines"
51407,GAN,343,36.3678,-94.2894,394.02,2011-02-22,19:36,2011-02-23,01:36,2,,,"clear","Orion","Haze from the city of Bentonville to the East.","1-3 Street Lights near my House. 2 Porch Lights plus gaze from my living room and bathroom windows. The bathroom window has a thick glass window so the gaze is not as strong. The living room window is a sliding glass door that overlooks my whole backyard.  My next door neighbor has 5 or 6 Garden lights that run down his front lawn.  I also have 4 neighbors that surround my house.","United States - Arkansas"
51408,GAN,344,42.836,-80.3248,220.37,2011-02-22,20:35,2011-02-23,01:35,4,,,"clear","Orion","The city glow dome is behind me away from orion. Orion is over farmland. Relatively ver clear sky for here with no haze.","On the edge of our town. Farmland to the west of me. Ground is snow covered. One street light to left of Orion. 30 secs dark adaptation.","Canada"
51409,SQM,345,42.2345,-83.6421,243.33,2011-02-22,20:20,2011-02-23,01:20,4,17.83,1080,"clear","Orion","","2 streetlights from the intersections on Hewitt are visible, and two security lights from the property at the back.  There are several apple trees with no leaves. A lot of snow cover makes it brighter than normal.","United States - Michigan"
51410,GAN,346,31.988,-110.973,827.46,2011-02-22,18:50,2011-02-23,01:50,3,,,"clear","Orion","","","United States - Arizona"
51411,GAN,347,40.6715,-74.1139,12.78,2011-02-22,20:46,2011-02-23,01:46,3,,,"clear","Orion","Sky crisp and clear; no clouds.","Urban, no snow, some porch lights.","United States - New Jersey"
51412,SQM,348,42.2575,-83.6879,250.33,2011-02-22,20:06,2011-02-23,01:06,1,10.13,1080,"clear","Orion","","grocery store parking lot.  LOTS of lights","United States - Michigan"
51413,GAN,349,32.1408,-96.8269,150.35,2011-02-22,19:24,2011-02-23,01:24,-9999,,,"over 1/2 of sky","Orion","","","United States - Texas"
51414,GAN,350,32.3023,-110.827,817.51,2011-02-21,18:00,2011-02-22,01:00,3,,,"1/4 of sky","Orion","thin clouds everywhere in the sky, not too cloudy  Cold and a little windy  multiple stars North are very bright","My house Sabino Canyon and Sunrise  My neighborhood; desert","United States - Arizona"
51415,GAN,351,35.8481,-78.5631,82.98,2011-02-22,20:47,2011-02-23,01:47,4,,,"clear","Orion","Sky glow from the southeast","Suburban location. Porchlight and streetlight about 150 feet in the front of the house.","United States - North Carolina"
51416,GAN,352,31.0529,-82.4609,43.14,2011-02-22,20:00,2011-02-23,01:00,5,,,"clear","Orion","","lat 32  long 79","United States - Georgia"
51417,GAN,353,40.773,-73.9583,15.78,2011-02-22,20:56,2011-02-23,01:56,4,,,"clear","Orion","The sky was clear and full of stars","","United States - New York"
51418,GAN,355,6.24786,-75.5584,1514.42,2011-02-22,20:49,2011-02-23,01:49,1,,,"1/2 of sky","Orion","Clouds: Cb, Cs, E to W","Urban park, trees and structures in vicinity. Streetlights in each corner. Urban reflectors to sky.","Colombia"
51419,SQM,356,42.5055,-82.9251,184.81,2011-02-22,20:46,2011-02-23,01:46,4,17.95,5291,"clear","Orion","Some minor haze from snow and cold, Skyglow from the west towards Zenith.","Suburban, snow cover yes, 3 streetlights, trees nearby","United States - Michigan"
51420,GAN,357,40.7833,-73.9077,7.02,2011-02-22,00:00,2011-02-22,05:00,3,,,"clear","Orion","Today was finally great and i got to see orion","It was more  fun than yesterday","United States - New York"
51421,GAN,358,38.462,-81.5053,270.45,2011-02-22,20:56,2011-02-23,01:56,-9999,,,"over 1/2 of sky","Orion","JamesD     the sky was cloudy with an overcast. stars were not visible","","United States - West Virginia"
51422,GAN,359,32.4166,-111.001,835.45,2011-02-21,20:23,2011-02-22,03:23,3,,,"clear","Orion","There were a few of very small clouds.","Street lights at every house.  Many trees in front yards.","United States - Arizona"
51423,GAN,360,30.2978,-97.7379,177.03,2011-02-22,21:03,2011-02-23,03:03,3,,,"clear","Orion","I saw Orion in the southwest. The main three stars of the belt were clear, as were the shoulders. The dagger was not visible.","Urban area, street lights.","United States - Texas"
51424,GAN,361,38.4076,-81.4863,249.51,2011-02-22,21:04,2011-02-23,02:04,-9999,,,"over 1/2 of sky","Orion","Over Cast","","United States - West Virginia"
51425,GAN,362,43.5416,-72.1302,383.11,2011-02-22,21:01,2011-02-23,02:01,5,,,"clear","Orion","","Rural  Garage light  Trees surrounding","United States - New Hampshire"
51426,GAN,363,40.7833,-73.9077,7.02,2011-02-22,21:01,2011-02-23,02:01,4,,,"clear","Orion","","","United States - New York"
51427,GAN,364,43.7198,-72.3139,161.9,2011-02-22,20:58,2011-02-23,01:58,4,,,"clear","Orion","very cold dry weather with extremely clear sky    light dome over hockey rink to the S","suburban, snow cover, floodlit backyard hockey rink across the street to S, trees and houses in vicinity but not blocking any part of field of view used for Magnitude matching","United States - Vermont"
51428,GAN,365,38.4084,-81.4754,249.21,2011-02-22,21:00,2011-02-23,02:00,-9999,,,"over 1/2 of sky","Orion","Too many clouds, couldn't see the stars","Suburban, no lights. Few trees","United States - West Virginia"
51429,GAN,366,41.5301,-87.2848,195.92,2011-02-22,20:11,2011-02-23,02:11,-9999,,,"over 1/2 of sky","Orion","100% cloud cover. No visibility. Low ceiling. Sky glow from U.S. Route 30 in NW Indiana.","Suburban, at SE end of Chicago motro sprawl, southern tip of Lake Michigan.","United States - Indiana"
51430,GAN,367,35.2481,-93.0491,113.5,2011-02-22,20:05,2011-02-23,02:05,5,,,"1/4 of sky","Orion","sort of cloudy but still kind of clear.","suburb one street light.","United States - Arkansas"
51431,GAN,368,30.0837,-95.6942,69.41,2011-02-22,20:17,2011-02-23,02:17,-9999,,,"over 1/2 of sky","Orion","Very many clouds. No stars. A little bit of glow coming from the distance of the left.","21 stareetb lights. Surban. No snow. Tall trees.","United States - Texas"
51432,GAN,369,32.4272,-81.7831,74.21,2011-02-22,20:50,2011-02-23,01:50,3,,,"1/4 of sky","Orion","There were thin clouds moving across Orion towards the east. There was a slight glow coming from the west.","It is an urban. There were many street lights and trees scattered all around. Cars also drove by.","United States - Georgia"
51433,GAN,371,40.6983,-96.5277,398.91,2011-02-22,20:18,2011-02-23,02:18,6,,,"clear","Orion","Sky glow in my Northwest from Lincoln, NE.","Rural Location.  No Street lights or porch lights.  Neighbor's yard lights in the distance.","United States - Nebraska"
51434,GAN,372,40.7643,-73.8929,10.85,2011-02-22,20:19,2011-02-23,01:19,4,,,"clear","Orion","sky glow to north, northeast","urban,  lights from storefronts and streetlights","United States - New York"
51435,GAN,373,38.4844,-81.3644,227.29,2011-02-22,21:23,2011-02-23,02:23,-9999,,,"over 1/2 of sky","Orion","overcast, drizzle","delford c","United States - West Virginia"
51436,GAN,374,30.1466,-98.0171,300.79,2011-02-22,20:24,2011-02-23,02:24,4,,,"clear","Orion","","Rural 18 miles from the center of the nearest city","United States - Texas"
51437,GAN,375,40.6406,-74.6223,85.26,2011-02-22,21:24,2011-02-23,02:24,3,,,"clear","Orion","Clear, very transparent","suburban/rural. No street lights. no obstructions","United States - New Jersey"
51438,GAN,376,31.3083,121.498,5.32,2011-02-22,20:25,2011-02-22,12:25,3,,,"clear","Orion","rather clear sky without any cloud,","suburban area in a university,  3 or 4 streetlights in vicinity,  no other light sources","China"
51439,GAN,377,30.2971,-97.7282,181.06,2011-02-22,20:30,2011-02-23,02:30,3,,,"over 1/2 of sky","Orion","","","United States - Texas"
51440,GAN,378,18.4199,-66.2415,10,2011-02-22,22:17,2011-02-23,02:17,5,,,"clear","Orion","Towards the west the sky looks darker, like a dark/marine blue. To the East is more like peachy/orange color. It must be glare from the city of Bayamon.","I live in a rural area and the main problem here are yellowish/orange street lights and the city glare coming from the East towards Bayamon.","Puerto Rico"
51441,GAN,379,30.3003,-97.7726,177.77,2011-02-22,20:23,2011-02-23,02:23,4,,,"1/4 of sky","Orion","there were not many cloudds where i was looking but there were clouds in the sky","urban, many of my neighbors have their persoal streetlights that they would not turn off","United States - Texas"
51442,GAN,380,32.7818,-80.022,4.67,2011-02-22,20:30,2011-02-23,01:30,5,,,"1/4 of sky","Orion","Not really cloudy. Some clouds, not much.","","United States - South Carolina"
51443,GAN,381,30.291,-97.7532,181.77,2011-02-22,20:31,2011-02-23,02:31,3,,,"clear","Orion","","","United States - Texas"
51444,GAN,382,38.5033,-81.3512,203.72,2011-02-22,21:34,2011-02-23,02:34,-9999,,,"over 1/2 of sky","Orion","Couldn't see any stars because it was complety overcast.","","United States - West Virginia"
51445,GAN,383,38.4736,-81.2799,190.83,2011-02-22,21:35,2011-02-23,02:35,-9999,,,"over 1/2 of sky","Orion","Couldn't see any stars because of the clouds","SummerH.","United States - West Virginia"
51446,GAN,384,40.7719,-73.9306,6.56,2011-02-22,21:35,2011-02-23,02:35,1,,,"1/2 of sky","Orion","","This website is really cool to go on.","United States - New York"
51447,GAN,385,38.5019,-81.3519,220.38,2011-02-22,21:37,2011-02-23,02:37,-9999,,,"over 1/2 of sky","Orion","Could not see any stars because clouds completly covered the sky.","EmilyW.","United States - West Virginia"
51448,GAN,386,35.6439,-97.7319,362.73,2011-02-22,20:34,2011-02-23,02:34,3,,,"1/2 of sky","Orion","Cloudy, but oddly not in the area where Orion was located.  Mostly around it.","Suburban area, in a neighborhood","United States - Oklahoma"
51449,GAN,387,40.775,-73.912,19.21,2011-02-21,20:30,2011-02-22,01:30,-9999,,,"over 1/2 of sky","Orion","","","United States - New York"
51450,GAN,388,28.0582,-82.6881,3.2,2011-02-22,21:26,2011-02-23,02:26,4,,,"1/4 of sky","Orion","Sky ckear overhead. Haze below 30 degrees. High thin clouds to the north. Sky glow to the South, East and West.","Suburban. Street lights wihin 40 meters on either side of my house.","United States - Florida"
51451,GAN,389,41.3624,-73.9661,49.36,2011-02-22,21:44,2011-02-23,02:44,5,,,"clear","Orion","Very few clouds in sight,  little to no skyglow .","Suburbs, few streetlights and porchlighs, Lots of trees, good amount of structures in the vicinity.","United States - New York"
51452,GAN,390,30.2943,-97.7551,184.61,2011-02-22,20:43,2011-02-23,02:43,3,,,"1/4 of sky","Orion","","","United States - Texas"
51453,GAN,391,40.7754,-73.9049,15.06,2011-02-22,21:25,2011-02-23,02:25,3,,,"clear","Orion","","","United States - New York"
51454,GAN,392,32.2675,-110.843,759.29,2011-02-22,19:42,2011-02-23,02:42,3,,,"over 1/2 of sky","Orion","","","United States - Arizona"
51455,GAN,393,32.4264,-81.7798,70.39,2011-02-22,20:45,2011-02-23,01:45,3,,,"1/2 of sky","Orion","Very hazy due to light pollution and a baseball game nearby.","Urbal college campus. Lots of street lamps.","United States - Georgia"
51456,GAN,394,32.2636,-110.842,755.46,2011-02-22,19:33,2011-02-23,02:33,4,,,"1/4 of sky","Orion","","","United States - Arizona"
51457,GAN,395,39.7533,-75.0981,27.24,2011-02-22,21:46,2011-02-23,02:46,4,,,"clear","Orion","","","United States - New Jersey"
51458,GAN,396,40.7643,-73.8929,10.85,2011-02-22,21:41,2011-02-23,02:41,3,,,"clear","Orion","The stars were alitte far away from eachother","","United States - New York"
51459,GAN,397,33.7586,-84.3517,313.89,2011-02-22,21:47,2011-02-23,02:47,-9999,,,"over 1/2 of sky","Orion","","","United States - Georgia"
51460,GAN,398,39.048,-108.432,1472.09,2011-02-22,19:46,2011-02-23,02:46,6,,,"clear","Orion","Clear","","United States - Colorado"
51462,GAN,400,29.9914,-91.7807,5.29,2011-02-22,20:48,2011-02-23,02:48,4,,,"clear","Orion","some haze.  Often it's a bit better than this, but not a lot.","Suburban.  Several businesses within 500 feet, including one with a very intrusive, glaring parking lot light.  Only one actual street light in that region.  Direct lighting is blocked from the observing site by trees, a fence, and a house.","United States - Louisiana"
51463,GAN,401,32.7223,-110.644,739.38,2011-02-22,19:28,2011-02-23,02:28,4,,,"clear","Orion","","we are in a very rural desert area.  near hills and mountain ranges.  there are a few lights outside. we have a street light but its not that bight.","United States - Arizona"
51464,GAN,402,40.7833,-73.9077,7.02,2011-02-22,21:55,2011-02-23,02:55,1,,,"1/2 of sky","Orion","","","United States - New York"
51465,GAN,403,32.2201,-110.792,826.72,2011-02-22,19:55,2011-02-23,02:55,4,,,"clear","Orion","","","United States - Arizona"
51466,GAN,404,32.2575,-110.832,761.84,2011-02-22,20:00,2011-02-23,03:00,4,,,"clear","Orion","","","United States - Arizona"
51468,GAN,406,42.5114,-70.8911,8.41,2011-02-22,21:57,2011-02-23,02:57,4,,,"clear","Orion","","Urban, densely settled, industrial. This was a particularly clear and dark night compared to most.","United States - Massachusetts"
51469,SQM,407,31.9576,-110.956,824.44,2011-02-22,19:58,2011-02-23,02:58,5,19.71,4257,"1/4 of sky","Orion","","","United States - Arizona"
51470,GAN,408,42.3456,-71.5213,93.29,2011-02-22,21:56,2011-02-23,02:56,4,,,"clear","Orion","Clear","Suburban, one street light a block away","United States - Massachusetts"
51471,GAN,409,40.7754,-73.9049,15.06,2011-02-22,21:56,2011-02-23,02:56,3,,,"clear","Orion","","","United States - New York"
51472,GAN,410,40.7681,-73.8889,5.94,2011-02-22,22:00,2011-02-23,03:00,2,,,"clear","Orion","","","United States - New York"
51473,GAN,412,32.7764,-79.9311,4.02,2011-02-22,21:53,2011-02-23,02:53,-9999,,,"over 1/2 of sky","Orion","It was super cloudy and there were absolutely no stars visible. The sky wasn't even black due to all of the light pollution it was receiving.","","United States - South Carolina"
51474,GAN,413,30.3307,-97.7453,200.41,2011-02-22,21:04,2011-02-23,03:04,1,,,"clear","Orion","","","United States - Texas"
51476,GAN,415,43.4992,-72.1041,342.54,2011-02-22,22:00,2011-02-23,03:00,4,,,"clear","Orion","","Rural. There is snow.  No streetlights, porchlights, or other light sources.  No vending machines.  Several trees.","United States - New Hampshire"
51478,GAN,417,36.8871,-119.72,118.07,2011-02-22,19:00,2011-02-23,03:00,4,,,"clear","Orion","Clear","Rural","United States - California"
51479,GAN,418,40.7833,-73.9077,7.02,2011-02-21,20:00,2011-02-22,01:00,-9999,,,"over 1/2 of sky","Orion","","","United States - New York"
51480,GAN,419,43.4894,-80.6931,366.16,2011-02-22,20:30,2011-02-23,01:30,5,,,"clear","Orion","Clear but large light dome from city of 250,000 reaching 45 degrees up the from the east and southeast horizon.","Semi-rural: small town with about 60 houses/15 street lights but 15km northwest of a city of 250,000. Snow on the ground.","Canada"
51481,GAN,420,34.4813,-82.6533,239.16,2011-02-22,21:54,2011-02-23,02:54,3,,,"clear","Orion","","","United States - South Carolina"
51482,GAN,421,32.4219,-81.784,66,2011-02-22,22:13,2011-02-23,03:13,3,,,"1/4 of sky","Orion","a few clouds, relatively clear otherwise","Suburban, half a dozen streelights on","United States - Georgia"
51483,GAN,422,31.8906,-110.949,872.86,2011-02-22,20:14,2011-02-23,03:14,4,,,"clear","Orion","Very slight haze; otherwise clear.","Few landscape lights and interior lights from residences. No streetlights.","United States - Arizona"
51484,GAN,423,36.8782,-119.74,115.04,2011-02-22,19:24,2011-02-23,03:24,3,,,"clear","Orion","Clear night","Suburban location;  1 street light;  Neighborhood house lights","United States - California"
51485,GAN,424,36.7477,-119.772,94.36,2011-02-22,19:18,2011-02-23,03:18,3,,,"clear","Orion","","","United States - California"
51486,GAN,425,30.321,-97.7831,179.95,2011-02-22,20:37,2011-02-23,02:37,4,,,"clear","Orion","I couldn't see any clouds but they might be there","","United States - Texas"
51487,GAN,426,30.2727,-97.7903,182.06,2011-02-22,21:21,2011-02-23,03:21,3,,,"1/4 of sky","Orion","Cloudy a bit.","Not to many street lights.  Urban  No snow...  No porchlights, a few lights from inside. was facing towards lots of lights  Trees.","United States - Texas"
51488,GAN,427,30.1629,-97.4894,153.84,2011-02-22,21:23,2011-02-23,03:23,-9999,,,"over 1/2 of sky","Orion","Very cloudy  Almost no stars visible","Rural  Porch lights  Far away street lights","United States - Texas"
51489,GAN,428,35.6411,-77.3237,8.03,2011-02-22,22:24,2011-02-23,03:24,3,,,"1/2 of sky","Orion","cloudy","","United States - North Carolina"
51490,GAN,429,38.4827,-81.2637,197.43,2011-02-22,22:17,2011-02-23,03:17,-9999,,,"over 1/2 of sky","Orion","There was a complete cloud cover, therefore no stars were visible.","","United States - West Virginia"
51491,GAN,430,38.5684,-90.4222,201.2,2011-02-22,21:00,2011-02-23,03:00,4,,,"clear","Orion","Small-Meramec-Observational Astronomy Class  Magnitude 4 but we could clearly make out all the stars in the sword of Orion.     clear, probably an 8/10 for transparency","Small-Meramec-roof of SW Science building","United States - Missouri"
51492,GAN,431,30.4869,-90.9562,12.96,2011-02-22,21:27,2011-02-23,03:27,3,,,"1/4 of sky","Orion","The skies here are OK, but could be much better. Just a little cloudy tonight, but it's not too bad. All of Orion is in view.","My town is just outside of a major city. There is one street light in front of my house, and a about 5 more down the street. My neighborhood is fairly dark compaired to most.","United States - Louisiana"
51493,GAN,433,35.6915,-97.4516,345.15,2011-02-22,21:28,2011-02-23,03:28,-9999,,,"over 1/2 of sky","Orion","haze- south, clouds- altocumulus,going south,","suburban, few trees, few porchlights","United States - Oklahoma"
51494,SQM,434,41.6065,-93.5158,265.06,2011-02-22,21:18,2011-02-23,03:18,4,18.71,,"clear","Orion","Clear, Des Moines sky glow to the west.      SQM Reading 18.71 Serial # 0551 - The web page would not let me enter serial number 0551.","Suburban.  Tree blocking most street lights","United States - Iowa"
51495,GAN,435,32.2648,-110.833,758.13,2011-02-22,20:37,2011-02-23,03:37,5,,,"clear","Orion","","","United States - Arizona"
51496,GAN,436,32.2784,-110.894,757.14,2011-02-22,20:33,2011-02-23,03:33,4,,,"clear","Orion","City lights south","Suburb","United States - Arizona"
51497,GAN,438,35.6206,-77.4187,19.9,2011-02-22,22:32,2011-02-23,03:32,2,,,"1/2 of sky","Orion","thin high clouds","urban area. street lights all around apt.","United States - North Carolina"
51498,GAN,439,35.5465,-97.6092,378.38,2011-02-22,21:38,2011-02-23,03:38,3,,,"1/4 of sky","Orion","Clouds less now compared to earlier but still some in the south east.","Suburban with two mercury vapor lights at end of block.","United States - Oklahoma"
51499,GAN,440,30.3685,-97.8407,266.48,2011-02-22,21:42,2011-02-23,03:42,4,,,"clear","Orion","","","United States - Texas"
51500,GAN,441,45.5563,-122.681,58.87,2011-02-22,19:38,2011-02-23,03:38,3,,,"1/4 of sky","Orion","Complete cloud cover to the south.","Suburban, some street lights, some trees and houses. Lighted freeway nearby.","United States - Oregon"
51501,GAN,442,19.3387,-99.1841,2281.23,2011-02-22,21:33,2011-02-23,03:33,2,,,"1/2 of sky","Orion","Cloudy, slight breeze from East and west.middle clouds. Low visibility.","Densely populated residential area. Intense urban lighting. Building with six floors. Urban and university campus. sourrounded by streetlights.","Mexico"
51502,GAN,443,30.2233,-81.6045,1.14,2011-02-22,22:46,2011-02-23,03:46,2,,,"clear","Orion","","suburban, street light just across the street","United States - Florida"
51503,GAN,444,45.5614,-122.679,63.39,2011-02-22,19:49,2011-02-23,03:49,3,,,"1/4 of sky","Orion","Orion to the south.","Next to freeway","United States - Oregon"
51504,GAN,445,37.7147,-121.919,103.03,2011-02-22,19:45,2011-02-23,03:45,4,,,"clear","Orion","lights from house","suburban","United States - California"
51505,GAN,446,40.1876,-105.148,1554.75,2011-02-22,20:50,2011-02-23,03:50,5,,,"clear","Orion","Dark adapted for about 3 minutes.","suburban neighborhood. On dark side of house. No visible streetlights. Trees and house blocking most nearby lights.","United States - Colorado"
51506,GAN,447,35.7281,-97.5337,324.09,2011-02-22,21:47,2011-02-23,03:47,4,,,"clear","Orion","Some cirrus haze to south and east. Could make out a few more stars than mag 4 chart but not enough for mag 5. Sky glow to the south due to Edmond/Oklahoma City.","Rural. 3 street/parking lot lights from nearby church. 3 house lights in distance.","United States - Oklahoma"
51507,GAN,448,41.5666,-87.4961,182.2,2011-02-22,19:05,2011-02-23,01:05,-9999,,,"over 1/2 of sky","Orion","The sky was completely cloud covered, with no chance to see Orion","This was at my house in a suburban area.","United States - Indiana"
51508,GAN,450,-36.686,-64.2896,170.8,2011-02-22,22:40,2011-02-23,01:40,3,,,"1/2 of sky","Orion","Nublado hacia el este -","urbana - con alumbrado pblico en las proximidades -","Argentina"
51509,GAN,451,41.7299,-93.5842,287.77,2011-02-22,21:53,2011-02-23,03:53,2,,,"1/4 of sky","Orion","Clear","City","United States - Iowa"
51510,GAN,452,32.4668,-110.943,904.45,2011-02-22,20:54,2011-02-23,03:54,5,,,"clear","Orion","","","United States - Arizona"
51511,GAN,453,34.2961,-79.881,46.89,2011-02-21,20:00,2011-02-22,01:00,4,,,"clear","Orion","The sky was clear.  Glow of thecity to my N. East, plus glow from a business to the south.","Surburban.  About 7/10ths of a mile from the city square of Darlington,SC.  Two semi-cutoff streetlights close to the backyrd observing site.  They were shielded from view by the house and a garage.","United States - South Carolina"
51512,GAN,454,36.8773,-119.74,114.95,2011-02-22,19:48,2011-02-23,03:48,3,,,"clear","Orion","","","United States - California"
51513,GAN,455,30.3326,-97.749,198.36,2011-02-22,21:55,2011-02-23,03:55,3,,,"1/2 of sky","Orion","","","United States - Texas"
51514,GAN,456,33.8523,-84.7243,286.69,2011-02-22,22:51,2011-02-23,03:51,3,,,"1/4 of sky","Orion","","","United States - Georgia"
51515,GAN,457,38.4374,-81.36,258.63,2011-02-22,22:52,2011-02-23,03:52,-9999,,,"over 1/2 of sky","Orion","sky was a solid gray/black hazey color.","rural, no lights","United States - West Virginia"
51516,GAN,458,36.8777,-119.739,115.33,2011-02-22,20:04,2011-02-23,04:04,4,,,"clear","Orion","clear","urban, 1 streetlights, 2 porch lights, 1 garage light","United States - California"
51517,GAN,459,34.3038,-79.8474,35.36,2011-02-21,20:45,2011-02-22,01:45,4,,,"clear","Orion","Clear, with dome of light from city of Darlington, SC to the West South West.","Suburban/country club.  One full cutoff streetlight at corner of yard, but was shielded by large magnolia tree.  Also, fully shielded/FCO backyard security fixture, no problem at all!","United States - South Carolina"
51518,GAN,460,32.466,-110.942,902.8,2011-02-22,21:14,2011-02-23,04:14,3,,,"clear","Orion","","","United States - Arizona"
51519,GAN,461,38.5072,-90.4962,181.33,2011-02-22,22:13,2011-02-23,04:13,4,,,"clear","Orion","small-logsdon   Sky is mostly clear with a fair amount of stars visible.","suburban with mostly clear skies though some of this might be due to streetlights.","United States - Missouri"
51520,GAN,462,44.2911,-105.502,1388.07,2011-02-22,21:20,2011-02-23,04:20,3,,,"clear","Orion","The sky was fairly clear with a few clouds; it was also fairly cold.","One mile out of town from a small city (30,000 people).  There are several streetlights in the vicinity.","United States - Wyoming"
51521,GAN,463,36.0648,-94.171,408.04,2011-02-22,22:18,2011-02-23,04:18,3,,,"clear","Orion","It is a bit hazy but overall the sky is clear of clouds.","There is a large parking deck across the street but the lights (for the most part) do not point into the sky.","United States - Arkansas"
51522,GAN,464,8.98526,-79.5516,21.07,2011-02-22,20:10,2011-02-23,01:10,3,,,"clear","Orion","","","Panama"
51523,GAN,465,38.5478,-121.476,8,2011-02-22,19:06,2011-02-23,03:06,2,,,"clear","Orion","","park & highway nearby, moderately lit neighborhood","United States - California"
51524,GAN,466,36.2869,-119.154,114.3,2011-02-22,20:17,2011-02-23,04:17,4,,,"1/4 of sky","Orion","","Suburban.  No snow. 2 street lights and outdoor house lights. two large redwood trees blocking some of the nearby lights.","United States - California"
51525,GAN,468,48.4236,-123.496,96.41,2011-02-21,20:00,2011-02-22,04:00,4,,,"clear","Orion","","Suburban, quite a few lights, military housing units with automatic flood lights in all the back yards. School with large neon sign nearby.","Canada"
51526,SQM,469,32.2285,-110.979,714.69,2011-02-22,20:05,2011-02-23,03:05,3,18.2,4332,"clear","Orion","","","United States - Arizona"
51527,SQM,470,37.3629,-122.133,113.3,2011-02-22,20:33,2011-02-23,04:33,4,18.07,,"clear","Orion","Clear, light dome to the east.","In a field away from lights","United States - California"
51528,GAN,471,36.886,-119.749,118.07,2011-02-22,20:36,2011-02-23,04:36,4,,,"clear","Orion","","","United States - California"
51529,SQM,472,32.1145,-110.797,886.1,2011-02-22,20:40,2011-02-23,03:40,5,19.38,4332,"clear","Orion","","","United States - Arizona"
51530,GAN,473,33.5779,-101.855,978.23,2011-02-22,22:38,2011-02-23,04:38,4,,,"1/4 of sky","Orion","Little Haze","In the middle of the city. Out in Southern Great Plains with city light all around .","United States - Texas"
51531,GAN,474,33.2938,-111.848,369.72,2011-02-22,21:30,2011-02-23,04:30,3,,,"clear","Orion","The sky is clear I did not see any clouds. The time I look out side Orions Belt was on the south westestn end of the night sky. It was fascinating to see star paterns that we review class (Astronomy-112)in the night sky.","I live in an urban eviornment so there are lots of light. It would be nice to see what the sky looks like without the city lights.  MCC-Healy#2831","United States - Arizona"
51532,GAN,475,38.5409,-121.492,7.19,2011-02-22,19:24,2011-02-23,03:24,5,,,"clear","Orion","Sharea","","United States - California"
51533,GAN,476,38.5409,-121.492,7.19,2011-02-22,20:15,2011-02-23,04:15,5,,,"clear","Orion","Sandra Weber","","United States - California"
51534,GAN,477,38.5409,-121.492,7.19,2011-02-22,19:24,2011-02-23,03:24,5,,,"clear","Orion","Sharea","","United States - California"
51535,GAN,478,38.5409,-121.492,7.19,2011-02-22,20:15,2011-02-23,04:15,4,,,"clear","Orion","Eoin Quinn","","United States - California"
51536,GAN,479,38.5409,-121.492,7.19,2011-02-22,20:44,2011-02-23,04:44,4,,,"clear","Orion","","Martin Carstensen","United States - California"
51537,GAN,480,35.6057,-97.5903,339.11,2011-02-22,21:45,2011-02-23,03:45,3,,,"over 1/2 of sky","Orion","Had about 3/4 cloud cover but Orion and the sky around it was clear. This location has Sky glow/light dome in all directions.","This location had no nearby streetlights but several of the houses had porchlights and garage lights turned on.","United States - Oklahoma"
51538,GAN,481,38.5395,-121.492,7.26,2011-02-22,20:15,2011-02-23,04:15,5,,,"clear","Orion","Jackson@scc","","United States - California"
51539,GAN,482,51.3289,7.02919,247.51,2011-02-21,21:00,2011-02-21,20:00,4,,,"clear","Orion","very cold..and clear,    no clouds","light air pollutions from small city's","Germany"
51540,GAN,483,38.5419,-121.485,8.6,2011-02-22,20:51,2011-02-23,04:51,4,,,"clear","Orion","","","United States - California"
51541,GAN,484,38.5409,-121.492,7.19,2011-02-22,20:40,2011-02-23,04:40,4,,,"clear","Orion","Anthony Marquez","","United States - California"
51542,GAN,485,32.4271,-81.7758,70.93,2011-02-22,20:45,2011-02-23,01:45,4,,,"1/2 of sky","Orion","hazey toward the East","Urban on Campus with lots of street lights and athletic field lights.","United States - Georgia"
51543,GAN,486,38.5409,-121.492,7.19,2011-02-22,20:15,2011-02-23,04:15,4,,,"clear","Orion","","","United States - California"
51544,GAN,487,38.5409,-121.492,7.19,2011-02-22,20:59,2011-02-23,04:59,4,,,"clear","Orion","Kelvin Ho","","United States - California"
51545,GAN,488,38.5409,-121.492,7.19,2011-02-22,20:52,2011-02-23,04:52,3,,,"clear","Orion","Besides a small amount of light pollution, the sky was overall pretty clear and","Dominic DaVia","United States - California"
51546,GAN,489,8.92586,-79.6917,33.23,2011-02-22,22:31,2011-02-23,03:31,3,,,"clear","Orion","Very clear.  No clouds.  No haze.","It is a urban location. To the right, around 15 meter, there is streetlight.  To the left, around 20 meters, there is a other streetlight. No tree blocks the sky.","Panama"
51547,GAN,490,38.5409,-121.492,7.19,2011-02-22,20:15,2011-02-23,04:15,4,,,"clear","Orion","Jason Xiong","","United States - California"
51548,GAN,491,38.5409,-121.492,7.19,2011-02-22,20:30,2011-02-23,04:30,5,,,"clear","Orion","Christopher Sanchez","","United States - California"
51549,GAN,492,38.5409,-121.492,7.19,2011-02-22,20:40,2011-02-23,04:40,4,,,"clear","Orion","jian li","","United States - California"
51550,GAN,493,38.5816,-121.494,7.89,2011-02-22,21:00,2011-02-23,05:00,4,,,"clear","Orion","Steven Stites","","United States - California"
51551,GAN,494,38.5404,-121.491,7.62,2011-02-22,21:05,2011-02-23,05:05,4,,,"clear","Orion","There was some sort of haze or light polution in the southern horizon.    James Pope","Rural, many street lights, airport lights near.","United States - California"
51552,GAN,495,32.4234,-81.7802,70.41,2011-02-22,20:30,2011-02-23,01:30,4,,,"1/2 of sky","Orion","cloudy with lots of light pollution","urban area, lots of light pollution, there was a baseball game happening near by so the lights from the stadium interfered.","United States - Georgia"
51553,GAN,496,38.5816,-121.494,7.89,2011-02-22,20:30,2011-02-23,04:30,5,,,"clear","Orion","joaquin iniguez","","United States - California"
51554,GAN,497,38.5409,-121.492,7.19,2011-02-22,21:10,2011-02-23,05:10,4,,,"clear","Orion","Aaron Keshishian","","United States - California"
51555,GAN,498,38.5816,-121.494,7.89,2011-02-22,20:40,2011-02-23,04:40,4,,,"clear","Orion","Luis Bedoya","","United States - California"
51556,SQM,499,31.9292,-110.991,879.48,2011-02-22,22:15,2011-02-23,05:15,6,20.56,4319,"clear","Orion","The sky is clear .You can see the stars pretty good.you can always get a good view of the moon,stars,constellations,and  the Milky Way here.","It is a really good place to live if you really like a good view of the sky.It would also be good to live here if you are  an astronomer or you are into stars and space.","United States - Arizona"
51557,SQM,500,36.838,-119.701,112.29,2011-02-22,00:00,2011-02-22,08:00,3,16.42,5486,"1/4 of sky","Orion","","parking lot with lights, lighted buildings","United States - California"
51558,SQM,501,36.837,-119.646,121.45,2011-02-22,19:57,2011-02-23,03:57,4,19.5,5486,"clear","Orion","sky glow west","roadside becoming rural.  No street lights","United States - California"
51559,GAN,502,38.5409,-121.492,7.19,2011-02-22,21:20,2011-02-23,05:20,5,,,"clear","Orion","Michelle Luera","","United States - California"
51560,SQM,503,36.8362,-119.559,133.37,2011-02-22,20:02,2011-02-23,04:02,4,19.56,5486,"clear","Orion","sky glow west","rural intersection","United States - California"
51561,GAN,504,38.5409,-121.492,7.19,2011-02-22,20:21,2011-02-23,04:21,4,,,"clear","Orion","Lisa Samate","","United States - California"
51562,GAN,505,28.6172,77.0805,218.32,2011-02-22,19:30,2011-02-22,14:00,3,,,"clear","Orion","Clear sky","Urban  Large number of street lights.","India"
51563,GAN,506,36.3232,-119.307,98.79,2011-02-22,21:29,2011-02-23,05:29,3,,,"1/4 of sky","Orion","partly cloudhy","suburban, streetlight is blocked by oaks and house","United States - California"
51564,SQM,507,36.7649,-119.556,118.28,2011-02-22,20:12,2011-02-23,04:12,4,19.75,5486,"clear","Orion","sky glow west","rural roadside.  Convenience store across street with glaring light","United States - California"
51565,SQM,508,36.7201,-119.457,121.13,2011-02-22,20:24,2011-02-23,04:24,4,20.47,5486,"clear","Orion","sky glow west","busy rural intersection","United States - California"
51566,SQM,509,36.7286,-119.345,318.71,2011-02-22,20:35,2011-02-23,04:35,5,20.25,5486,"clear","Orion","sky glow west","rural highway","United States - California"
51567,SQM,510,36.7302,-119.285,481.77,2011-02-22,20:42,2011-02-23,04:42,5,20.87,5486,"clear","Orion","sky glow west","pullout on rural highway","United States - California"
51568,GAN,511,40.7775,-73.9191,13.31,2011-02-23,19:36,2011-02-24,00:36,-9999,,,"1/2 of sky","Orion","","Cloudy","United States - New York"
51569,SQM,512,36.7559,-119.178,519.15,2011-02-22,20:50,2011-02-23,04:50,6,20.96,5486,"clear","Orion","sky glow west","pullout on rural highway.  Trees and foothills around","United States - California"
51570,GAN,513,38.5409,-121.492,7.19,2011-02-22,20:30,2011-02-23,04:30,4,,,"clear","Orion","","Ari Ambrose","United States - California"
